Route,Location,URL,"Avg Stars","Your Stars","Route Type",Rating,Pitches,Length,"Area Latitude","Area Longitude"
"""OK Groomer""","Right Cliff > CSC Bouldering Area > Burge North (Tonasket) > Okanogan > Washington",https://www.mountainproject.com/route/122803793/ok-groomer,2.0,-1,Boulder,V-easy,1,8,48.79087,-119.24835
"# 2-#7","ChickenHead Rock > Minnehaha > Spokane Area > Northeast Corner & Spokane > Washington",https://www.mountainproject.com/route/118725401/2-7,1.0,-1,Boulder,V0,1,,47.68855,-117.32631
"#5 and #6","UFO Wall > Minnehaha > Spokane Area > Northeast Corner & Spokane > Washington",https://www.mountainproject.com/route/118725337/5-and-6,1.0,-1,Boulder,V0,1,,47.68729,-117.32649
#honnolding,"The Brown Eye Boulder > Mountain Home Road Boulders > Leavenworth > Central-East Cascades, Wenatchee, & Leavenworth > Washington",https://www.mountainproject.com/route/126143208/honnolding,2.0,-1,Boulder,V0,1,,47.54501,-120.66724
"(Scree)min' Demon","Bedal Basin (Bedal Boulder) > Darrington and Mountain Loop Hwy > Northwest Region > Washington",https://www.mountainproject.com/route/110680183/screemin-demon,3.0,-1,Boulder,V0-1,1,,48.06604,-121.36959
"++ Daddy's Brush Station","Daddy Wall > Planet Index > Lookout Point Area > Index > Skykomish Valley > Central-West Cascades & Seattle > Washington",https://www.mountainproject.com/route/122875723/daddys-brush-station,2.0,-1,"TR, Boulder",V-easy,1,1,47.82566,-121.55814
2.,"Bimbo Beach Backbone Boulders > East Wenatchee > Wenatchee > Central-East Cascades, Wenatchee, & Leavenworth > Washington",https://www.mountainproject.com/route/120337671/2,1.0,-1,Boulder,V0,1,,47.46256,-120.31463
"20 Meter Freestyle Traverse","20-Meter Freestyle Area > Banks Lake > Central Region > Washington",https://www.mountainproject.com/route/124634669/20-meter-freestyle-traverse,1.0,-1,Boulder,V0-1,1,80,47.88724,-119.10107
3.,"Bimbo Beach Backbone Boulders > East Wenatchee > Wenatchee > Central-East Cascades, Wenatchee, & Leavenworth > Washington",https://www.mountainproject.com/route/120337945/3,1.5,-1,Boulder,V0,1,,47.46256,-120.31463
4.,"Bimbo Beach Backbone Boulders > East Wenatchee > Wenatchee > Central-East Cascades, Wenatchee, & Leavenworth > Washington",https://www.mountainproject.com/route/120337955/4,1.5,-1,Boulder,V0,1,,47.46256,-120.31463
"5 Star Downclimb","There Will Be Blood Boulder > Blockbuster Boulders > Smithbrook > Central-East Cascades, Wenatchee, & Leavenworth > Washington",https://www.mountainproject.com/route/121313013/5-star-downclimb,4.0,-1,Boulder,V0,1,15,47.79527,-121.06455
5.,"Bimbo Beach Backbone Boulders > East Wenatchee > Wenatchee > Central-East Cascades, Wenatchee, & Leavenworth > Washington",https://www.mountainproject.com/route/120337961/5,1.0,-1,Boulder,V0,1,,47.46256,-120.31463
7.,"Bimbo Beach Backbone Boulders > East Wenatchee > Wenatchee > Central-East Cascades, Wenatchee, & Leavenworth > Washington",https://www.mountainproject.com/route/120337985/7,2.0,-1,Boulder,V0-1,1,,47.46256,-120.31463
8.,"Bimbo Beach Backbone Boulders > East Wenatchee > Wenatchee > Central-East Cascades, Wenatchee, & Leavenworth > Washington",https://www.mountainproject.com/route/120337993/8,1.0,-1,Boulder,V-easy,1,,47.46256,-120.31463
"A Walk below the Park","The Other Slabs > Main Area > Mitchell Plateau > ** Bouldering in Icicle Creek > Icicle Creek > Leavenworth > Central-East Cascades, Wenatchee, & Leavenworth > Washington",https://www.mountainproject.com/route/119803067/a-walk-below-the-park,2.0,-1,Boulder,V0-,1,18,47.54506,-120.72597
"Adamantine Pot","Delicious in Forest > Tin Man > ** Bouldering in Icicle Creek > Icicle Creek > Leavenworth > Central-East Cascades, Wenatchee, & Leavenworth > Washington",https://www.mountainproject.com/route/126299759/adamantine-pot,1.0,-1,Boulder,V0,1,10,47.57629,-120.79258
"Adventures (Above)Ground","Badger Rock > Howard Amon > Southeast Corner > Washington",https://www.mountainproject.com/route/125051686/adventures-aboveground,4.0,-1,Boulder,V0,1,,46.27401,-119.27131
"Air Soft","(b) Pistol Pinch Boulder > (2) Highway Ditch Zone > Pistol Boulders > Far Side Boulders > **Bouldering at Exit 38 > Exit 38 > North Bend & Vicinity > Central-West Cascades & Seattle > Washington",https://www.mountainproject.com/route/120547333/air-soft,1.0,-1,Boulder,V0,1,7,47.42921,-121.62025
"Alexis C Jolly","Pretty Boulders > ** Bouldering in Icicle Creek > Icicle Creek > Leavenworth > Central-East Cascades, Wenatchee, & Leavenworth > Washington",https://www.mountainproject.com/route/113801231/alexis-c-jolly,2.9,-1,Boulder,V0,1,,47.5576,-120.76935
Alight,"Mini-Mossy-Mammoth Boulder > Mt. Washington Boulders > **Bouldering at Exit 38 > Exit 38 > North Bend & Vicinity > Central-West Cascades & Seattle > Washington",https://www.mountainproject.com/route/126259838/alight,0.5,-1,Boulder,V-easy,1,6,47.44185,-121.67269
"All Groomed Up Now","Left Cliff > CSC Bouldering Area > Burge North (Tonasket) > Okanogan > Washington",https://www.mountainproject.com/route/122604135/all-groomed-up-now,2.0,-1,Boulder,V-easy,1,40,48.79077,-119.24861
"Alpine Cow","Warmup boulder > The Forest > The Beach and Forest Area > ** Bouldering in Tumwater Canyon > Tumwater Canyon > Leavenworth > Central-East Cascades, Wenatchee, & Leavenworth > Washington",https://www.mountainproject.com/route/115436743/alpine-cow,2.0,-1,Boulder,V0,1,15,47.5944,-120.71438
"Alpine Feel","Cloaca Boulder > Mad Meadows > ** Bouldering in Icicle Creek > Icicle Creek > Leavenworth > Central-East Cascades, Wenatchee, & Leavenworth > Washington",https://www.mountainproject.com/route/107352598/alpine-feel,2.1,-1,Boulder,V0,1,,47.54256,-120.72288
"American Diaper","Dirty Hairy Boulder > Blockbuster Boulders > Smithbrook > Central-East Cascades, Wenatchee, & Leavenworth > Washington",https://www.mountainproject.com/route/121307391/american-diaper,1.0,-1,Boulder,V0,1,10,47.79542,-121.06383
"Andrew Said It Doesn’t Count","Icicle Buttress > Icicle Buttress and Bob's Wall > Icicle Creek > Leavenworth > Central-East Cascades, Wenatchee, & Leavenworth > Washington",https://www.mountainproject.com/route/125906720/andrew-said-it-doesnt-count,2.0,-1,Boulder,V0,1,,47.54818,-120.75176
"Andrew's Boulder Problem","Upper Pratt > South Bessemer Creek > Bessemer Mountain > Exit 34; Middle Fork & Taylor River > North Bend & Vicinity > Central-West Cascades & Seattle > Washington",https://www.mountainproject.com/route/126464377/andrews-boulder-problem,1.0,-1,Boulder,V-easy,1,10,47.54062,-121.58402
Anti-Faxx,"CDC > Semantics Area > 2nd Field (Main) > Treasury > Skykomish Valley > Central-West Cascades & Seattle > Washington",https://www.mountainproject.com/route/119916915/anti-faxx,1.0,-1,Boulder,V0,1,,47.76112,-121.12828
"Arachnid Crack","Schurman Rock > Camp Long > West Seattle > Seattle and Seattle Eastside > Central-West Cascades & Seattle > Washington",https://www.mountainproject.com/route/125641514/arachnid-crack,2.0,-1,Boulder,V-easy,1,12,47.55471,-122.3735
"Are those new pants?","FCI Warm-up > Fuck Camano Island > Deception Pass > San Juan, Fidalgo & Whidbey Islands > Northwest Region > Washington",https://www.mountainproject.com/route/119260379/are-those-new-pants,2.0,-1,Boulder,V0-,1,10,48.40194,-122.65398
Arete,"Second Block > ** Bouldering at Gibralter > Gibralter Rocks > Northrup Canyon > Banks Lake > Central Region > Washington",https://www.mountainproject.com/route/123225328/arete,1.0,-1,Boulder,V0,1,,47.86659,-119.08548
"Arete right","Slabby arete boulder > Lower Wall & Lower Lump Boulders > ** Bouldering at Index > Index > Skykomish Valley > Central-West Cascades & Seattle > Washington",https://www.mountainproject.com/route/108129962/arete-right,2.0,-1,Boulder,V0-,1,,47.8185,-121.5705
"Aretepeggios from Hell","(g) No Fockin' Donuts Boulder > (1) Cable Sign Zone > Pistol Boulders > Far Side Boulders > **Bouldering at Exit 38 > Exit 38 > North Bend & Vicinity > Central-West Cascades & Seattle > Washington",https://www.mountainproject.com/route/120545720/aretepeggios-from-hell,1.7,-1,Boulder,V0,1,9,47.42949,-121.61982
Arrowhead,"Main Area Bouldering > Sehome Arboretum Bouldering > Sehome Arboretum > Bellingham Area > Bellingham and Mt Baker Hwy > Northwest Region > Washington",https://www.mountainproject.com/route/125032443/arrowhead,1.5,-1,Boulder,V0-,1,5,48.72964,-122.48328
ATC,"(e) Secret Wall > (f) Summit Area > Mount Erie > San Juan, Fidalgo & Whidbey Islands > Northwest Region > Washington",https://www.mountainproject.com/route/125924873/atc,1.0,-1,"Sport, TR, Boulder","5.8 V0+",1,20,48.45412,-122.62311
"Avocado Toast","Avocado > Power Struggle Cluster > Whiteface Area > 2nd Field (Main) > Treasury > Skykomish Valley > Central-West Cascades & Seattle > Washington",https://www.mountainproject.com/route/119646058/avocado-toast,1.0,-1,Boulder,V0,1,,47.76093,-121.12913
"B Reactor","Atomic Rock > Howard Amon > Southeast Corner > Washington",https://www.mountainproject.com/route/125051984/b-reactor,4.0,-1,Boulder,V0,1,,46.2739,-119.27123
"Baby Shark","Doo Doo Doo Doo Doo Doo Boulder > Main Area > Mitchell Plateau > ** Bouldering in Icicle Creek > Icicle Creek > Leavenworth > Central-East Cascades, Wenatchee, & Leavenworth > Washington",https://www.mountainproject.com/route/114941977/baby-shark,1.0,-1,Boulder,V-easy,1,10,47.54464,-120.725
"Bacon Stone","Parking Lot Stones > Forestland Boulders > ** Bouldering in Icicle Creek > Icicle Creek > Leavenworth > Central-East Cascades, Wenatchee, & Leavenworth > Washington",https://www.mountainproject.com/route/126003730/bacon-stone,2.0,-1,Boulder,V-easy,1,3,47.54498,-120.73285
"Baer Arms","(c) The Chamber Boulder > (3) Access Road Zone > Pistol Boulders > Far Side Boulders > **Bouldering at Exit 38 > Exit 38 > North Bend & Vicinity > Central-West Cascades & Seattle > Washington",https://www.mountainproject.com/route/120547491/baer-arms,1.3,-1,Boulder,V0,1,12,47.42949,-121.61937
"Balance of Power","British Boulder > Empire Boulders > Columbia Gorge > South-West & Tacoma > Washington",https://www.mountainproject.com/route/119808999/balance-of-power,1.2,-1,Boulder,V0,1,,45.745,-121.76219
"Baresnaked Lady","Barefooted Lady boulder > Main Area > Lost Ledge > Larrabee > Bellingham Area > Bellingham and Mt Baker Hwy > Northwest Region > Washington",https://www.mountainproject.com/route/122828652/baresnaked-lady,1.0,-1,Boulder,V0+,1,,48.65852,-122.46101
"Battle the Bulge","UW Rock > Seattle and Seattle Eastside > Central-West Cascades & Seattle > Washington",https://www.mountainproject.com/route/126123223/battle-the-bulge,3.5,-1,Boulder,V0,1,,47.6481,-122.301
"Beach Crack","Northernmost stack > Ruby beach boulder stacks > Olympic Bouldering > Olympic National Park > Olympics & Pacific Coast > Washington",https://www.mountainproject.com/route/119245180/beach-crack,1.0,-1,"Boulder, Alpine",V0,1,18,47.71575,-124.41931
"Beach Slab","Northernmost stack > Ruby beach boulder stacks > Olympic Bouldering > Olympic National Park > Olympics & Pacific Coast > Washington",https://www.mountainproject.com/route/124538213/beach-slab,1.0,-1,"Boulder, Alpine",V0-1,1,15,47.71575,-124.41931
Beansprout,"FCI Splash Zone > Fuck Camano Island > Deception Pass > San Juan, Fidalgo & Whidbey Islands > Northwest Region > Washington",https://www.mountainproject.com/route/119260524/beansprout,3.0,-1,Boulder,V0+,1,18,48.40195,-122.65457
"Bear Facts","Ursa Minor > Empire Boulders > Columbia Gorge > South-West & Tacoma > Washington",https://www.mountainproject.com/route/119740700/bear-facts,1.3,-1,Boulder,V-easy,1,13,45.74499,-121.76218
"Bedal Juice","Bedal Basin (Bedal Boulder) > Darrington and Mountain Loop Hwy > Northwest Region > Washington",https://www.mountainproject.com/route/110680143/bedal-juice,2.0,-1,Boulder,V0-1,1,,48.06604,-121.36959
"Bell Tower Traverse","Ballard > Seattle and Seattle Eastside > Central-West Cascades & Seattle > Washington",https://www.mountainproject.com/route/118325386/bell-tower-traverse,2.0,-1,Boulder,V0,1,40,47.66837,-122.38451
"Bernie Sandeagle","(e) Philosophical Sandeagle Boulder > (2) Highway Ditch Zone > Pistol Boulders > Far Side Boulders > **Bouldering at Exit 38 > Exit 38 > North Bend & Vicinity > Central-West Cascades & Seattle > Washington",https://www.mountainproject.com/route/120547445/bernie-sandeagle,1.8,-1,Boulder,V0,1,12,47.42912,-121.62032
Bertha,"Jerry Garcia boulder > The Egg > ** Bouldering in Icicle Creek > Icicle Creek > Leavenworth > Central-East Cascades, Wenatchee, & Leavenworth > Washington",https://www.mountainproject.com/route/107278559/bertha,1.9,-1,Boulder,V0+,1,,47.57192,-120.78939
"Big Floppy Sausage","Sausage Links Boulder > The Far East Forest > Reiter Foothills > Gold Bar Boulders > Skykomish Valley > Central-West Cascades & Seattle > Washington",https://www.mountainproject.com/route/120853760/big-floppy-sausage,2.0,-1,Boulder,V0-,1,20,47.8481,-121.596
"Binary Star","Low Orbit Wall > The Switchbacks > Mitchell Plateau > ** Bouldering in Icicle Creek > Icicle Creek > Leavenworth > Central-East Cascades, Wenatchee, & Leavenworth > Washington",https://www.mountainproject.com/route/116208713/binary-star,0.5,-1,Boulder,V0-,1,10,47.54405,-120.72496
"Birth Canal","Coal Mountain Boulders > * Bouldering in the Cumberland Crags Area > Cumberland Crags > Other Skagit Valley Crags > Hwy 20 and North Cascades National Park > Northwest Region > Washington",https://www.mountainproject.com/route/119281335/birth-canal,4.0,-1,Boulder,"V0 PG13",1,,48.47716,-122.12122
"Black Death Hollow","The Grotto > Fern Gully Cluster > Whiteface Area > 2nd Field (Main) > Treasury > Skykomish Valley > Central-West Cascades & Seattle > Washington",https://www.mountainproject.com/route/119645574/black-death-hollow,2.0,-1,Boulder,V0,1,,47.76074,-121.12833
Blazar,"Quasar Wall > The Switchbacks > Mitchell Plateau > ** Bouldering in Icicle Creek > Icicle Creek > Leavenworth > Central-East Cascades, Wenatchee, & Leavenworth > Washington",https://www.mountainproject.com/route/116208679/blazar,0.5,-1,Boulder,V-easy,1,8,47.54425,-120.7248
"Bleeding Ankle","Rainier View Park (Sumner) > Seattle and Seattle Eastside > Central-West Cascades & Seattle > Washington",https://www.mountainproject.com/route/120214768/bleeding-ankle,2.0,-1,Boulder,V0,1,30,47.19793,-122.22074
"Blind Bandi","The Five Star Warmup > Reiter Road > Gold Bar Boulders > Skykomish Valley > Central-West Cascades & Seattle > Washington",https://www.mountainproject.com/route/117531580/blind-bandi,1.3,-1,Boulder,V0,1,,47.84363,-121.61506
"Blue Lights, Pull Right","AlpenGlow (aka Upper Kueffler Road Boulders) > Columbia Gorge > South-West & Tacoma > Washington",https://www.mountainproject.com/route/108861072/blue-lights-pull-right,3.0,-1,Boulder,V0,1,15,45.67919,-122.06415
"Blue Sky Action","The Grotto > Fern Gully Cluster > Whiteface Area > 2nd Field (Main) > Treasury > Skykomish Valley > Central-West Cascades & Seattle > Washington",https://www.mountainproject.com/route/119645651/blue-sky-action,3.0,-1,Boulder,V0,1,,47.76074,-121.12833
"Boar's Head","Persian Boulder > Empire Boulders > Columbia Gorge > South-West & Tacoma > Washington",https://www.mountainproject.com/route/119696867/boars-head,1.3,-1,Boulder,V-easy,1,6,45.74499,-121.76218
"Boat Rock Arete","Boat Rock > ** Bouldering at Gibralter > Gibralter Rocks > Northrup Canyon > Banks Lake > Central Region > Washington",https://www.mountainproject.com/route/123270199/boat-rock-arete,2.0,-1,Boulder,V0-1,1,12,47.86621,-119.08617
"Bottom's Up!","Right Cliff > CSC Bouldering Area > Burge North (Tonasket) > Okanogan > Washington",https://www.mountainproject.com/route/122589928/bottoms-up,2.0,-1,Boulder,V-easy,1,10,48.79087,-119.24835
"Bottomed Out","Right Cliff > CSC Bouldering Area > Burge North (Tonasket) > Okanogan > Washington",https://www.mountainproject.com/route/122803723/bottomed-out,2.0,-1,Boulder,V-easy,1,8,48.79087,-119.24835
"Boulder Drop Slab","Hueco Rock > River Boulders > ** Bouldering at Index > Index > Skykomish Valley > Central-West Cascades & Seattle > Washington",https://www.mountainproject.com/route/122992076/boulder-drop-slab,3.0,-1,Boulder,V0+,1,,47.81716,-121.60151
"Boulder Problem","Center on Human Development and Disability > University of Washington Campus and Surrounding Areas > Seattle and Seattle Eastside > Central-West Cascades & Seattle > Washington",https://www.mountainproject.com/route/118339306/boulder-problem,1.0,-1,Boulder,V-easy,1,10,47.64837,-122.3084
"Bowser Crack","Sanctuary Boulders > East Forest > Forest > Reiter Foothills > Gold Bar Boulders > Skykomish Valley > Central-West Cascades & Seattle > Washington",https://www.mountainproject.com/route/118985716/bowser-crack,3.2,-1,Boulder,V0,1,,47.84738,-121.6046
"Box Seats","East Warm-up Boulder > East Forest > Forest > Reiter Foothills > Gold Bar Boulders > Skykomish Valley > Central-West Cascades & Seattle > Washington",https://www.mountainproject.com/route/107716183/box-seats,1.8,-1,Boulder,V0-,1,8,47.84701,-121.60684
Boxers,"Underwear Rock > The Sword/Underwear Rock > ** Bouldering in Icicle Creek > Icicle Creek > Leavenworth > Central-East Cascades, Wenatchee, & Leavenworth > Washington",https://www.mountainproject.com/route/114222313/boxers,1.9,-1,Boulder,V0,1,,47.57008,-120.78798
"Bratwurst im Mund","Sausage Links Boulder > The Far East Forest > Reiter Foothills > Gold Bar Boulders > Skykomish Valley > Central-West Cascades & Seattle > Washington",https://www.mountainproject.com/route/120853753/bratwurst-im-mund,2.0,-1,Boulder,V0,1,15,47.8481,-121.596
"Bread Loaf","Mount Rainier > Southwest Cascades > South-West & Tacoma > Washington",https://www.mountainproject.com/route/119283293/bread-loaf,2.0,-1,"Boulder, Alpine",V0,1,8,46.8529,-121.76047
Breadline,"The Real Thing Boulder > Forestland Boulders > ** Bouldering in Icicle Creek > Icicle Creek > Leavenworth > Central-East Cascades, Wenatchee, & Leavenworth > Washington",https://www.mountainproject.com/route/108184552/breadline,2.8,-1,Boulder,V0,1,10,47.54498,-120.73286
BreezeBlocks,"BreezeBlock > Salty Spitoon > Granite Point Boulders > Granite Point > Southeast Corner > Washington",https://www.mountainproject.com/route/119432767/breezeblocks,1.0,-1,Boulder,V0,1,14,46.60133,-117.36248
Brickwork,"U2 and Goicoechea boulder > The Forest > The Beach and Forest Area > ** Bouldering in Tumwater Canyon > Tumwater Canyon > Leavenworth > Central-East Cascades, Wenatchee, & Leavenworth > Washington",https://www.mountainproject.com/route/112034786/brickwork,3.3,-1,Boulder,V0,1,10,47.59433,-120.71442
"Bubba Gump","The Strawberry Cream Boulder > Box of Chocolates Boulders > Stehekin > Chelan > Central-East Cascades, Wenatchee, & Leavenworth > Washington",https://www.mountainproject.com/route/111167026/bubba-gump,2.0,-1,Boulder,V0,1,,48.309,-120.6565
Bubbles,"Other routes > Swiftwater Picnic Area > Swiftwater Boulders > ** Bouldering in Tumwater Canyon > Tumwater Canyon > Leavenworth > Central-East Cascades, Wenatchee, & Leavenworth > Washington",https://www.mountainproject.com/route/106529514/bubbles,1.9,-1,Boulder,V-easy,1,,47.66484,-120.71974
Bubbles!,"The Blob > Kalaloch Beach 3 > Olympic Bouldering > Olympic National Park > Olympics & Pacific Coast > Washington",https://www.mountainproject.com/route/121247591/bubbles,2.0,-1,"Boulder, Alpine",V0,1,,47.63958,-124.38643
"Buckleys Broomstick","The South Face > Granite Point Boulders > Granite Point > Southeast Corner > Washington",https://www.mountainproject.com/route/119736368/buckleys-broomstick,2.3,-1,Boulder,V0-1,1,13,46.60437,-117.35923
Bullwinkle,"Evil Petting Zoo > The Forest > The Beach and Forest Area > ** Bouldering in Tumwater Canyon > Tumwater Canyon > Leavenworth > Central-East Cascades, Wenatchee, & Leavenworth > Washington",https://www.mountainproject.com/route/115959791/bullwinkle,1.4,-1,Boulder,V0,1,,47.59457,-120.71431
"Bunny Lebowski","Naughty Corner Boulders > Paradise Boulders > Miller River Boulders > Skykomish Valley > Central-West Cascades & Seattle > Washington",https://www.mountainproject.com/route/119285162/bunny-lebowski,1.0,-1,Boulder,V0,1,,47.64217,-121.37542
"Burnt End","Obelisk Boulder > Deception Glade Boulders > **Bouldering at Exit 38 > Exit 38 > North Bend & Vicinity > Central-West Cascades & Seattle > Washington",https://www.mountainproject.com/route/119461749/burnt-end,1.0,-1,Boulder,V0,1,15,47.43708,-121.66275
"Butterflies and Sunshine","Kuba Slab Cluster > Lucid Boulders > Darrington > Darrington and Mountain Loop Hwy > Northwest Region > Washington",https://www.mountainproject.com/route/111839355/butterflies-and-sunshine,2.3,-1,Boulder,V0+,1,,48.09568,-121.34904
Butthead,"McFly > Blockbuster Boulders > Smithbrook > Central-East Cascades, Wenatchee, & Leavenworth > Washington",https://www.mountainproject.com/route/121379221/butthead,0.5,-1,Boulder,V0,1,5,47.79539,-121.0648
Camel,"Corridor of Funlandia > Sasquatch Boulders > ** Bouldering at Index > Index > Skykomish Valley > Central-West Cascades & Seattle > Washington",https://www.mountainproject.com/route/119467870/camel,1.1,-1,Boulder,V0,1,,47.83169,-121.52
"Candy Man","Right Cliff > CSC Bouldering Area > Burge North (Tonasket) > Okanogan > Washington",https://www.mountainproject.com/route/122561048/candy-man,2.0,-1,Boulder,V-easy,1,15,48.79087,-119.24835
Carls,"Hueco Rock > River Boulders > ** Bouldering at Index > Index > Skykomish Valley > Central-West Cascades & Seattle > Washington",https://www.mountainproject.com/route/122992069/carls,2.8,-1,Boulder,V0+,1,,47.81716,-121.60151
"Castles Made Of Sand","Burge Boulders > Burge Mountain (Tonasket) > Okanogan > Washington",https://www.mountainproject.com/route/122928798/castles-made-of-sand,2.0,-1,Boulder,V0+,1,15,48.78124,-119.27279
"Center Line","The Face > The Roadside Boulders > Morning Rock Bouldering > Kettle Valley Bouldering > Kettle Valley (Curlew) > Okanogan > Washington",https://www.mountainproject.com/route/112808954/center-line,2.3,-1,Boulder,V0-,1,,48.8921,-118.70053
Chaitanya,"Columbia Pearl > Beacon Rock Bouldering > Beacon Rock > Columbia Gorge > South-West & Tacoma > Washington",https://www.mountainproject.com/route/119702785/chaitanya,2.5,-1,Boulder,V0-1,1,12,45.6248,-122.01973
"Chalk to me nice","Wilson Way Bridge Boulder > Point Defiance Park > Tacoma > Tacoma & I5 to Foothills > South-West & Tacoma > Washington",https://www.mountainproject.com/route/120108751/chalk-to-me-nice,2.0,-1,Boulder,V0,1,8,47.30337,-122.51183
Chewbacca,"Mr. Brightside and Chewbacca Boulders > West Forest > Forest > Reiter Foothills > Gold Bar Boulders > Skykomish Valley > Central-West Cascades & Seattle > Washington",https://www.mountainproject.com/route/105855152/chewbacca,2.5,-1,Boulder,V0,1,9,47.84875,-121.60967
"Child's Play","Left Cliff > CSC Bouldering Area > Burge North (Tonasket) > Okanogan > Washington",https://www.mountainproject.com/route/122552173/childs-play,1.0,-1,Boulder,V-easy,1,25,48.79077,-119.24861
"Chipped Tooth","Incisor Boulder > Heybrook Ridge > ** Bouldering at Index > Index > Skykomish Valley > Central-West Cascades & Seattle > Washington",https://www.mountainproject.com/route/121149557/chipped-tooth,2.0,-1,Boulder,V0,1,12,47.81604,-121.55372
Chirp,"Coyote Corner > Mad Meadows > ** Bouldering in Icicle Creek > Icicle Creek > Leavenworth > Central-East Cascades, Wenatchee, & Leavenworth > Washington",https://www.mountainproject.com/route/119803349/chirp,0.5,-1,Boulder,V0-,1,10,47.54284,-120.72034
"Cirith Ungol (Spiders Cleft)","Tiny Dishman > * Bouldering in Dishman > Dishman > Spokane Area > Northeast Corner & Spokane > Washington",https://www.mountainproject.com/route/118764407/cirith-ungol-spiders-cleft,2.0,-1,Boulder,"V0 PG13",1,,47.65429,-117.28465
"Classic Mantle","UW Rock > Seattle and Seattle Eastside > Central-West Cascades & Seattle > Washington",https://www.mountainproject.com/route/126131557/classic-mantle,2.0,-1,Boulder,V0-,1,,47.6481,-122.301
"Clef Crack","Rubik's Cube Group > Clearcut > Reiter Foothills > Gold Bar Boulders > Skykomish Valley > Central-West Cascades & Seattle > Washington",https://www.mountainproject.com/route/108663110/clef-crack,2.4,-1,Boulder,V0+,1,,47.84789,-121.60935
"Climbing with Arms","(b) The Cult Boulder > (1) Cable Sign Zone > Pistol Boulders > Far Side Boulders > **Bouldering at Exit 38 > Exit 38 > North Bend & Vicinity > Central-West Cascades & Seattle > Washington",https://www.mountainproject.com/route/120546952/climbing-with-arms,0.7,-1,Boulder,V-easy,1,8,47.42943,-121.6199
"Clint Eastwood's Dog","(a) Clint Eastwood's Dog's Boulder > (2) Highway Ditch Zone > Pistol Boulders > Far Side Boulders > **Bouldering at Exit 38 > Exit 38 > North Bend & Vicinity > Central-West Cascades & Seattle > Washington",https://www.mountainproject.com/route/120547347/clint-eastwoods-dog,1.0,-1,Boulder,V-easy,1,10,47.42921,-121.62008
"Clown Queen Story Hour","Right Cliff > CSC Bouldering Area > Burge North (Tonasket) > Okanogan > Washington",https://www.mountainproject.com/route/122603876/clown-queen-story-hour,2.0,-1,Boulder,V0-,1,12,48.79087,-119.24835
Cobra,"(e) Secret Wall > (f) Summit Area > Mount Erie > San Juan, Fidalgo & Whidbey Islands > Northwest Region > Washington",https://www.mountainproject.com/route/126078840/cobra,1.5,-1,"TR, Boulder","5.8 V0",1,16,48.45412,-122.62311
"Cold Sore","Coal Mountain Boulders > * Bouldering in the Cumberland Crags Area > Cumberland Crags > Other Skagit Valley Crags > Hwy 20 and North Cascades National Park > Northwest Region > Washington",https://www.mountainproject.com/route/119316675/cold-sore,2.0,-1,Boulder,V-easy,1,,48.47716,-122.12122
Concavity,"The Real Thing Boulder > Forestland Boulders > ** Bouldering in Icicle Creek > Icicle Creek > Leavenworth > Central-East Cascades, Wenatchee, & Leavenworth > Washington",https://www.mountainproject.com/route/108184560/concavity,1.8,-1,Boulder,V0,1,,47.54498,-120.73286
"Confidence Boost","RumpShaker Boulder > Weenie Hut Jr's > Granite Point Boulders > Granite Point > Southeast Corner > Washington",https://www.mountainproject.com/route/119432046/confidence-boost,1.0,-1,Boulder,V0+,1,12,46.60094,-117.36146
"Cool Down","The Fridge > ** Bouldering in Icicle Creek > Icicle Creek > Leavenworth > Central-East Cascades, Wenatchee, & Leavenworth > Washington",https://www.mountainproject.com/route/107601798/cool-down,2.3,-1,Boulder,V0-,1,,47.54741,-120.69566
"Corn V0","UFO Wall > Minnehaha > Spokane Area > Northeast Corner & Spokane > Washington",https://www.mountainproject.com/route/118725309/corn-v0,1.0,-1,Boulder,V0,1,,47.68729,-117.32649
Cornered,"Tri-Point Boulder > Top Self Area > 2nd Field (Main) > Treasury > Skykomish Valley > Central-West Cascades & Seattle > Washington",https://www.mountainproject.com/route/120802041/cornered,2.0,-1,Boulder,V0,1,,47.76158,-121.12945
Cornflake,"Lower Cliff Morning Rock > Morning Rock > Kettle Valley (Curlew) > Okanogan > Washington",https://www.mountainproject.com/route/108210857/cornflake,2.0,-1,Boulder,"5.6 V-easy",1,15,48.89239,-118.69927
"Cosmic Debris","Low Orbit Wall > The Switchbacks > Mitchell Plateau > ** Bouldering in Icicle Creek > Icicle Creek > Leavenworth > Central-East Cascades, Wenatchee, & Leavenworth > Washington",https://www.mountainproject.com/route/116208699/cosmic-debris,0.5,-1,Boulder,V0-,1,10,47.54405,-120.72496
Cosmos,"Cosmos Boulder > Empire Boulders > Columbia Gorge > South-West & Tacoma > Washington",https://www.mountainproject.com/route/119676036/cosmos,2.0,-1,Boulder,V-easy,1,10,45.74506,-121.7622
"Court And Spark","La Petite Mort Wall > Burge North - Hidden Canyon > Burge North (Tonasket) > Okanogan > Washington",https://www.mountainproject.com/route/123114886/court-and-spark,3.0,-1,Boulder,"V-easy R",1,18,48.79733,-119.24361
"Cowardly Lion","Scarecrow Boulder > Forestland Boulders > ** Bouldering in Icicle Creek > Icicle Creek > Leavenworth > Central-East Cascades, Wenatchee, & Leavenworth > Washington",https://www.mountainproject.com/route/108184622/cowardly-lion,1.7,-1,Boulder,V0,1,8,47.54513,-120.7324
Crack,"Split Rock > West Forest > Forest > Reiter Foothills > Gold Bar Boulders > Skykomish Valley > Central-West Cascades & Seattle > Washington",https://www.mountainproject.com/route/118666907/crack,3.0,-1,Boulder,V0,1,,47.84836,-121.60819
"Crackademic West","New Sub-Area 1 > Western Washington University Buildering > Bellingham Area > Bellingham and Mt Baker Hwy > Northwest Region > Washington",https://www.mountainproject.com/route/117966118/crackademic-west,3.5,-1,Boulder,"V-easy R",1,15,48.73249,-122.48682
"Crag Ducks Attack","River Boulder > 1st Field > Treasury > Skykomish Valley > Central-West Cascades & Seattle > Washington",https://www.mountainproject.com/route/119589797/crag-ducks-attack,2.6,-1,Boulder,V0,1,,47.75635,-121.12923
"Crimp Line","Warm-up Slab > Kalaloch Beach 3 > Olympic Bouldering > Olympic National Park > Olympics & Pacific Coast > Washington",https://www.mountainproject.com/route/122584203/crimp-line,2.0,-1,"Boulder, Alpine",V0-,1,,47.64013,-124.38646
Croton,"Greek Boulder > Empire Boulders > Columbia Gorge > South-West & Tacoma > Washington",https://www.mountainproject.com/route/119696951/croton,1.5,-1,Boulder,V0,1,12,45.74507,-121.76218
"Crumble Crack","North Wall > Endless Traverse Wall > East Wenatchee > Wenatchee > Central-East Cascades, Wenatchee, & Leavenworth > Washington",https://www.mountainproject.com/route/121386787/crumble-crack,2.0,-1,Boulder,V0-1,1,,47.40608,-120.29273
"Cube Crack","Clamshell Cave > Clamshell > Icicle Creek > Leavenworth > Central-East Cascades, Wenatchee, & Leavenworth > Washington",https://www.mountainproject.com/route/106165686/cube-crack,2.5,-1,"TR, Boulder","5.8- V0-",1,20,47.54524,-120.72914
"Cube Traverse","The Cube > Clamshell Cave > ** Bouldering in Icicle Creek > Icicle Creek > Leavenworth > Central-East Cascades, Wenatchee, & Leavenworth > Washington",https://www.mountainproject.com/route/108359591/cube-traverse,2.4,-1,Boulder,V0-1,1,30,47.54494,-120.72905
"Cubicle Gangster","Hourglass Boulder > The Sword/Underwear Rock > ** Bouldering in Icicle Creek > Icicle Creek > Leavenworth > Central-East Cascades, Wenatchee, & Leavenworth > Washington",https://www.mountainproject.com/route/114587117/cubicle-gangster,2.6,-1,Boulder,V0,1,,47.57018,-120.78803
D.E.E.P.,".D.E.E.P. > The Crown Cluster > Whiteface Area > 2nd Field (Main) > Treasury > Skykomish Valley > Central-West Cascades & Seattle > Washington",https://www.mountainproject.com/route/119645084/deep,2.0,-1,Boulder,V0,1,,47.76083,-121.1288
"D.E.E.P. Slab",".D.E.E.P. > The Crown Cluster > Whiteface Area > 2nd Field (Main) > Treasury > Skykomish Valley > Central-West Cascades & Seattle > Washington",https://www.mountainproject.com/route/119645053/deep-slab,1.0,-1,Boulder,V0,1,,47.76083,-121.1288
"Dan Akroyd","The Carnival Boulders > ** Bouldering in Icicle Creek > Icicle Creek > Leavenworth > Central-East Cascades, Wenatchee, & Leavenworth > Washington",https://www.mountainproject.com/route/113801175/dan-akroyd,2.0,-1,Boulder,V-easy,1,,47.55558,-120.76821
"Daniel's Dishes","Cole's Boulder > Main Area > Mitchell Plateau > ** Bouldering in Icicle Creek > Icicle Creek > Leavenworth > Central-East Cascades, Wenatchee, & Leavenworth > Washington",https://www.mountainproject.com/route/115423785/daniels-dishes,1.0,-1,Boulder,"V0 PG13",1,15,47.54496,-120.72542
Datura,"Lighten Up Boulder > West Forest > Forest > Reiter Foothills > Gold Bar Boulders > Skykomish Valley > Central-West Cascades & Seattle > Washington",https://www.mountainproject.com/route/114361781/datura,3.1,-1,Boulder,"V0+ PG13",1,18,47.84839,-121.60824
"David Macalaster","The Awakening Boulder > Lucid Boulders > Darrington > Darrington and Mountain Loop Hwy > Northwest Region > Washington",https://www.mountainproject.com/route/111179586/david-macalaster,2.0,-1,Boulder,V0,1,,48.09568,-121.34904
"Deadmonds Shuffle","Hickman Park Rock Garden > Edmonds > Seattle and Seattle Eastside > Central-West Cascades & Seattle > Washington",https://www.mountainproject.com/route/126296664/deadmonds-shuffle,1.0,-1,Boulder,V0,1,4,47.78474,-122.37348
"Death From A Buzz","The Queen Boulder > Blockbuster Boulders > Smithbrook > Central-East Cascades, Wenatchee, & Leavenworth > Washington",https://www.mountainproject.com/route/121383507/death-from-a-buzz,3.0,-1,Boulder,V0,1,15,47.79461,-121.06415
"Deception Stretch","Ape Rock > Minnehaha > Spokane Area > Northeast Corner & Spokane > Washington",https://www.mountainproject.com/route/118725279/deception-stretch,2.5,-1,Boulder,V0,1,,47.68859,-117.32602
"Dee Dee","Car Door Boulder > Approach Boulders > Morpheus Boulders > Miller River Boulders > Skykomish Valley > Central-West Cascades & Seattle > Washington",https://www.mountainproject.com/route/117251201/dee-dee,1.8,-1,Boulder,V0,1,9,47.66875,-121.39706
"Deep breath","Moulton Falls > Columbia Gorge > South-West & Tacoma > Washington",https://www.mountainproject.com/route/119029473/deep-breath,2.5,-1,Boulder,"V0 R",1,,45.83137,-122.38956
Deface,"Portage Cliffs Bouldering > Sillusi Bluffs > Southeast Corner > Washington",https://www.mountainproject.com/route/125672491/deface,2.0,-1,Boulder,V0,1,,45.93975,-119.31216
Desperate,"Big Rock > The Roadside Boulders > Morning Rock Bouldering > Kettle Valley Bouldering > Kettle Valley (Curlew) > Okanogan > Washington",https://www.mountainproject.com/route/122556783/desperate,1.0,-1,Boulder,V0,1,,48.89188,-118.70019
"Dewey Cox","Walk Hard Boulder > Blockbuster Boulders > Smithbrook > Central-East Cascades, Wenatchee, & Leavenworth > Washington",https://www.mountainproject.com/route/121374769/dewey-cox,1.0,-1,Boulder,V0,1,10,47.79527,-121.06466
Diagonal,"Warm-up Slab > Kalaloch Beach 3 > Olympic Bouldering > Olympic National Park > Olympics & Pacific Coast > Washington",https://www.mountainproject.com/route/122584129/diagonal,2.0,-1,"Boulder, Alpine",V0,1,,47.64013,-124.38646
"Dingleberry Junction","Underwear Rock > The Sword/Underwear Rock > ** Bouldering in Icicle Creek > Icicle Creek > Leavenworth > Central-East Cascades, Wenatchee, & Leavenworth > Washington",https://www.mountainproject.com/route/124643202/dingleberry-junction,1.5,-1,Boulder,V0,1,,47.57008,-120.78798
"Dirty Smithy","Hollowed Boulder > Pitless Avocado > ** Bouldering in Tumwater Canyon > Tumwater Canyon > Leavenworth > Central-East Cascades, Wenatchee, & Leavenworth > Washington",https://www.mountainproject.com/route/117863438/dirty-smithy,2.5,-1,Boulder,V0,1,,47.58472,-120.68109
"Dirty Upper Lip","Super Weenie Hut Boulder > Weenie Hut Jr's > Granite Point Boulders > Granite Point > Southeast Corner > Washington",https://www.mountainproject.com/route/119432181/dirty-upper-lip,1.0,-1,Boulder,V0,1,12,46.60094,-117.36146
"Ditch Witch","Warm-up/Roses boulder > The Labyrinth > ** Bouldering in Tumwater Canyon > Tumwater Canyon > Leavenworth > Central-East Cascades, Wenatchee, & Leavenworth > Washington",https://www.mountainproject.com/route/117564123/ditch-witch,3.3,-1,Boulder,V0,1,14,47.58851,-120.6881
"Divide and Conquer","Ursa Major > Empire Boulders > Columbia Gorge > South-West & Tacoma > Washington",https://www.mountainproject.com/route/126217947/divide-and-conquer,2.0,-1,Boulder,V0,1,20,45.74502,-121.76214
"Don't Climb That She Said","Glacier Peak > Glacier Peak Wilderness > Darrington and Mountain Loop Hwy > Northwest Region > Washington",https://www.mountainproject.com/route/118251503/dont-climb-that-she-said,2.0,-1,Boulder,V0+,1,10,48.11222,-121.11387
Doublethink,"Viking Boulder > Empire Boulders > Columbia Gorge > South-West & Tacoma > Washington",https://www.mountainproject.com/route/119672911/doublethink,2.2,-1,Boulder,V0,1,16,45.74504,-121.76215
"Down Climb","Highball with the Devil Boulder > Lucid Boulders > Darrington > Darrington and Mountain Loop Hwy > Northwest Region > Washington",https://www.mountainproject.com/route/111178947/down-climb,2.0,-1,Boulder,V0-1,1,,48.09568,-121.34904
Downclimb,"(e) Philosophical Sandeagle Boulder > (2) Highway Ditch Zone > Pistol Boulders > Far Side Boulders > **Bouldering at Exit 38 > Exit 38 > North Bend & Vicinity > Central-West Cascades & Seattle > Washington",https://www.mountainproject.com/route/120547462/downclimb,0.7,-1,Boulder,V0,1,10,47.42912,-121.62032
Downclimb,"Man About Town Boulder > Booka Boulders > **Middle Fork Boulders > Exit 34; Middle Fork & Taylor River > North Bend & Vicinity > Central-West Cascades & Seattle > Washington",https://www.mountainproject.com/route/123180029/downclimb,1.0,-1,Boulder,V0,1,10,47.54872,-121.52295
Downclimb,"Kenticle Boulder > Kent East Hill Skate Park (AKA The Kenticle) > Seattle and Seattle Eastside > Central-West Cascades & Seattle > Washington",https://www.mountainproject.com/route/120405464/downclimb,1.0,-1,Boulder,V-easy,1,10,47.3859,-122.1873
Downclimb,"Cougar Park (Mill Creek) Boulder > Seattle and Seattle Eastside > Central-West Cascades & Seattle > Washington",https://www.mountainproject.com/route/119289516/downclimb,1.0,-1,Boulder,V-easy,1,7,47.86369,-122.18831
Downclimb,"Blue Tailed Friend Boulder > Salty Spitoon > Granite Point Boulders > Granite Point > Southeast Corner > Washington",https://www.mountainproject.com/route/119433627/downclimb,1.0,-1,Boulder,V0,1,12,46.60115,-117.36286
Downclimb/Inserene,"Camp Serene > Serene Area Boulders > Gold Bar Boulders > Skykomish Valley > Central-West Cascades & Seattle > Washington",https://www.mountainproject.com/route/108144280/downclimbinserene,1.5,-1,Boulder,V0-,1,20,47.83306,-121.61795
"Drag Queen Groomers","Middle Cliff > CSC Bouldering Area > Burge North (Tonasket) > Okanogan > Washington",https://www.mountainproject.com/route/122551952/drag-queen-groomers,2.0,-1,Boulder,V0,1,12,48.7908,-119.24843
Dragonspine,"Dragonspine Boulder > Lookout Trail Boulders > ** Bouldering at Index > Index > Skykomish Valley > Central-West Cascades & Seattle > Washington",https://www.mountainproject.com/route/113615751/dragonspine,3.0,-1,Boulder,V0,1,20,47.82403,-121.56095
"Duck Hunt","Metroid Prime Boulder > East Forest > Forest > Reiter Foothills > Gold Bar Boulders > Skykomish Valley > Central-West Cascades & Seattle > Washington",https://www.mountainproject.com/route/119237318/duck-hunt,1.7,-1,Boulder,V0,1,,47.84726,-121.60445
"Dungeon Staircase","Delicious in Forest > Tin Man > ** Bouldering in Icicle Creek > Icicle Creek > Leavenworth > Central-East Cascades, Wenatchee, & Leavenworth > Washington",https://www.mountainproject.com/route/126299769/dungeon-staircase,1.0,-1,Boulder,V0,1,10,47.57629,-120.79258
DUPLO,"Leggo my Ego Boulder > River Boulders > ** Bouldering at Index > Index > Skykomish Valley > Central-West Cascades & Seattle > Washington",https://www.mountainproject.com/route/125694474/duplo,2.3,-1,Boulder,V0,1,,47.81749,-121.59801
"East Side Problems","Martha Lake Airport Park Boulder (Lynnwood) > Seattle and Seattle Eastside > Central-West Cascades & Seattle > Washington",https://www.mountainproject.com/route/118358726/east-side-problems,1.7,-1,Boulder,V0-1,1,12,47.86486,-122.23647
"Easy Left","Olympia > Olympics & Pacific Coast > Washington",https://www.mountainproject.com/route/107835143/easy-left,0.5,-1,Boulder,V0-,1,,47.0406,-122.8269
"Easy Middle","Olympia > Olympics & Pacific Coast > Washington",https://www.mountainproject.com/route/107835132/easy-middle,0.0,-1,Boulder,V-easy,1,,47.0406,-122.8269
"Easy Squeezy","Sanctuary Boulders > East Forest > Forest > Reiter Foothills > Gold Bar Boulders > Skykomish Valley > Central-West Cascades & Seattle > Washington",https://www.mountainproject.com/route/118109537/easy-squeezy,2.7,-1,Boulder,V0-,1,15,47.84738,-121.6046
Ein,"Cowboy Bebop Boulder > Grand Line Boulders > Reiter Road > Gold Bar Boulders > Skykomish Valley > Central-West Cascades & Seattle > Washington",https://www.mountainproject.com/route/122307346/ein,1.5,-1,Boulder,"V0-1 PG13",1,15,47.8444,-121.61451
"Elder Crack","Elderberry Trail Boulders > Sehome Arboretum Bouldering > Sehome Arboretum > Bellingham Area > Bellingham and Mt Baker Hwy > Northwest Region > Washington",https://www.mountainproject.com/route/125094733/elder-crack,3.0,-1,Boulder,"5.6 V0",1,12,48.73493,-122.47819
Elevators,"Ottie Spottie Boulder > Outkast Boulders > West Forest > Forest > Reiter Foothills > Gold Bar Boulders > Skykomish Valley > Central-West Cascades & Seattle > Washington",https://www.mountainproject.com/route/105881962/elevators,2.0,-1,Boulder,V0,1,,47.84909,-121.6089
"End of Innocence","Middle Cliff > CSC Bouldering Area > Burge North (Tonasket) > Okanogan > Washington",https://www.mountainproject.com/route/122940170/end-of-innocence,2.0,-1,Boulder,V0,1,12,48.7908,-119.24843
England,"British Boulder > Empire Boulders > Columbia Gorge > South-West & Tacoma > Washington",https://www.mountainproject.com/route/119808889/england,1.3,-1,Boulder,V-easy,1,,45.745,-121.76219
"Entre Slab","Happy Tree Boulder > Roslyn > Central-East Cascades, Wenatchee, & Leavenworth > Washington",https://www.mountainproject.com/route/123134471/entre-slab,1.0,-1,Boulder,V0,1,6,47.22444,-120.98511
"Ethos Edge","Badger Rock > Howard Amon > Southeast Corner > Washington",https://www.mountainproject.com/route/125051554/ethos-edge,4.0,-1,Boulder,V0,1,,46.27401,-119.27131
"Every Blessing Ignored Becomes A Curse","Mini-Mossy-Mammoth Boulder > Mt. Washington Boulders > **Bouldering at Exit 38 > Exit 38 > North Bend & Vicinity > Central-West Cascades & Seattle > Washington",https://www.mountainproject.com/route/126260189/every-blessing-ignored-becomes-a-curse,2.0,-1,Boulder,V0-1,1,7,47.44185,-121.67269
"Ex-Pat Scotsman","Kong > The Kong Boulders > JY Boulders > ** Bouldering in Icicle Creek > Icicle Creek > Leavenworth > Central-East Cascades, Wenatchee, & Leavenworth > Washington",https://www.mountainproject.com/route/124077974/ex-pat-scotsman,2.0,-1,Boulder,V0,1,,47.55385,-120.76435
"Excitable Boy","Left Cliff > CSC Bouldering Area > Burge North (Tonasket) > Okanogan > Washington",https://www.mountainproject.com/route/122560428/excitable-boy,2.0,-1,Boulder,"V-easy R",1,30,48.79077,-119.24861
F-B-Eye,"Sehome Arboretum (old) > Bellingham Area > Bellingham and Mt Baker Hwy > Northwest Region > Washington",https://www.mountainproject.com/route/124467556/f-b-eye,2.0,-1,Boulder,V0-,1,7,48.7353,-122.4798
F-B-Eye,"The Eagle > Sehome Arboretum Bouldering > Sehome Arboretum > Bellingham Area > Bellingham and Mt Baker Hwy > Northwest Region > Washington",https://www.mountainproject.com/route/125094914/f-b-eye,2.0,-1,Boulder,V0,1,10,48.73627,-122.47955
"Fantastic Planet","Fantastic Planet Boulder > The Switchbacks > Mitchell Plateau > ** Bouldering in Icicle Creek > Icicle Creek > Leavenworth > Central-East Cascades, Wenatchee, & Leavenworth > Washington",https://www.mountainproject.com/route/116208633/fantastic-planet,1.0,-1,Boulder,V0-,1,8,47.54434,-120.72475
FBI,"(a) The FBI Boulder > (1) Cable Sign Zone > Pistol Boulders > Far Side Boulders > **Bouldering at Exit 38 > Exit 38 > North Bend & Vicinity > Central-West Cascades & Seattle > Washington",https://www.mountainproject.com/route/120614083/fbi,1.0,-1,Boulder,V0,1,,47.42938,-121.61999
"FCI warm up","FCI Warm-up > Fuck Camano Island > Deception Pass > San Juan, Fidalgo & Whidbey Islands > Northwest Region > Washington",https://www.mountainproject.com/route/119260356/fci-warm-up,3.0,-1,Boulder,V-easy,1,10,48.40194,-122.65398
"Feathers is Full (sit start)","One More Boulders > **Bouldering at Vantage > Frenchman Coulee (Vantage) > Central Region > Washington",https://www.mountainproject.com/route/124042483/feathers-is-full-sit-start,2.3,-1,Boulder,V0-1,1,12,47.02727,-119.96397
"Feel Good Arete","RumpShaker Boulder > Weenie Hut Jr's > Granite Point Boulders > Granite Point > Southeast Corner > Washington",https://www.mountainproject.com/route/119432006/feel-good-arete,1.0,-1,Boulder,V-easy,1,12,46.60094,-117.36146
"Feel the Rhyme","Forestland Bluff > Forestland Boulders > ** Bouldering in Icicle Creek > Icicle Creek > Leavenworth > Central-East Cascades, Wenatchee, & Leavenworth > Washington",https://www.mountainproject.com/route/114153228/feel-the-rhyme,2.3,-1,Boulder,V0,1,,47.54521,-120.73275
"Feel the Rhythm","Forestland Bluff > Forestland Boulders > ** Bouldering in Icicle Creek > Icicle Creek > Leavenworth > Central-East Cascades, Wenatchee, & Leavenworth > Washington",https://www.mountainproject.com/route/114153185/feel-the-rhythm,1.3,-1,Boulder,V0,1,15,47.54521,-120.73275
"Fen Fin","The Carnival Boulders > ** Bouldering in Icicle Creek > Icicle Creek > Leavenworth > Central-East Cascades, Wenatchee, & Leavenworth > Washington",https://www.mountainproject.com/route/106577674/fen-fin,2.9,-1,Boulder,V0,1,,47.55558,-120.76821
"Finding the stud","Paparazzi Boulder > Mountain Home Road Boulders > Leavenworth > Central-East Cascades, Wenatchee, & Leavenworth > Washington",https://www.mountainproject.com/route/124431613/finding-the-stud,0.5,-1,Boulder,V0,1,8,47.54487,-120.66851
"Fingey Crack","The Five Star Boulder > Reiter Road > Gold Bar Boulders > Skykomish Valley > Central-West Cascades & Seattle > Washington",https://www.mountainproject.com/route/119382017/fingey-crack,2.5,-1,Boulder,V0,1,15,47.84284,-121.61072
"First Contact","Tara Boulder > Roslyn > Central-East Cascades, Wenatchee, & Leavenworth > Washington",https://www.mountainproject.com/route/123132950/first-contact,0.0,-1,Boulder,V0,1,6,47.22444,-120.98636
"Fisch Fry","Rapanui Boulder > Fireside Boulders > Sinlahekin Valley (Loomis) > Okanogan > Washington",https://www.mountainproject.com/route/114408666/fisch-fry,1.0,-1,Boulder,V0,1,,48.75638,-119.66513
"Fish Tank","Girls Club > Fern Gully Cluster > Whiteface Area > 2nd Field (Main) > Treasury > Skykomish Valley > Central-West Cascades & Seattle > Washington",https://www.mountainproject.com/route/119611274/fish-tank,1.0,-1,Boulder,V0,1,,47.7607,-121.12874
Flake,"The Amphitheater > Horsethief Butte > South-Central & Yakima > Washington",https://www.mountainproject.com/route/114315846/flake,2.0,-1,Boulder,V-easy,1,13,45.64832,-121.09834
"Forget Your Rubbers","Alphabet Wall Boulders > Straightaway Boulders > ** Bouldering in Icicle Creek > Icicle Creek > Leavenworth > Central-East Cascades, Wenatchee, & Leavenworth > Washington",https://www.mountainproject.com/route/118734011/forget-your-rubbers,2.6,-1,Boulder,V0,1,,47.54431,-120.7435
"Fountain Blues","Warmup boulder > The Forest > The Beach and Forest Area > ** Bouldering in Tumwater Canyon > Tumwater Canyon > Leavenworth > Central-East Cascades, Wenatchee, & Leavenworth > Washington",https://www.mountainproject.com/route/115436802/fountain-blues,2.6,-1,Boulder,V0,1,15,47.5944,-120.71438
"Freak Flag","Middle Cliff > CSC Bouldering Area > Burge North (Tonasket) > Okanogan > Washington",https://www.mountainproject.com/route/122560367/freak-flag,2.0,-1,Boulder,V-easy,1,12,48.7908,-119.24843
"Freak Show","Middle Cliff > CSC Bouldering Area > Burge North (Tonasket) > Okanogan > Washington",https://www.mountainproject.com/route/122884414/freak-show,3.0,-1,Boulder,V-easy,1,12,48.7908,-119.24843
"Free WIlly","Bloom Boulder > Rattlesnake Lake Bouldering > Exit 32; Rattlesnake Lake > North Bend & Vicinity > Central-West Cascades & Seattle > Washington",https://www.mountainproject.com/route/121706556/free-willy,3.0,-1,Boulder,V0,1,15,47.43348,-121.77402
"French Arete","French Exit Boulder > 420 Zone > Morpheus Boulders > Miller River Boulders > Skykomish Valley > Central-West Cascades & Seattle > Washington",https://www.mountainproject.com/route/118688396/french-arete,2.5,-1,Boulder,V0,1,15,47.66381,-121.40353
"Fridge Slab","The Fridge > ** Bouldering in Icicle Creek > Icicle Creek > Leavenworth > Central-East Cascades, Wenatchee, & Leavenworth > Washington",https://www.mountainproject.com/route/107602030/fridge-slab,2.6,-1,Boulder,V0,1,,47.54741,-120.69566
"Frog Crack","Beginner Rock > The Roadside Boulders > Morning Rock Bouldering > Kettle Valley Bouldering > Kettle Valley (Curlew) > Okanogan > Washington",https://www.mountainproject.com/route/112809081/frog-crack,1.0,-1,Boulder,V0-,1,,48.89153,-118.70017
"Frog Face","Burge Boulders > Burge Mountain (Tonasket) > Okanogan > Washington",https://www.mountainproject.com/route/122928742/frog-face,2.0,-1,Boulder,V-easy,1,10,48.78124,-119.27279
"Funiculi Funicula","Jerry Garcia boulder > The Egg > ** Bouldering in Icicle Creek > Icicle Creek > Leavenworth > Central-East Cascades, Wenatchee, & Leavenworth > Washington",https://www.mountainproject.com/route/107278535/funiculi-funicula,2.5,-1,Boulder,V-easy,1,,47.57192,-120.78939
Furiously,"Kenticle Boulder > Kent East Hill Skate Park (AKA The Kenticle) > Seattle and Seattle Eastside > Central-West Cascades & Seattle > Washington",https://www.mountainproject.com/route/120396185/furiously,3.0,-1,Boulder,V0+,1,12,47.3859,-122.1873
"G-string Tornado","Right Cliff > CSC Bouldering Area > Burge North (Tonasket) > Okanogan > Washington",https://www.mountainproject.com/route/122803766/g-string-tornado,2.0,-1,Boulder,V-easy,1,10,48.79087,-119.24835
Garage,"Cougar Park (Mill Creek) Boulder > Seattle and Seattle Eastside > Central-West Cascades & Seattle > Washington",https://www.mountainproject.com/route/126097807/garage,1.0,-1,Boulder,V0,1,6,47.86369,-122.18831
"General Slab","Rapanui Boulder > Fireside Boulders > Sinlahekin Valley (Loomis) > Okanogan > Washington",https://www.mountainproject.com/route/114408569/general-slab,1.0,-1,Boulder,V0,1,,48.75638,-119.66513
"Georgia Peach","Dishman Bouldering Wall > * Bouldering in Dishman > Dishman > Spokane Area > Northeast Corner & Spokane > Washington",https://www.mountainproject.com/route/113201017/georgia-peach,1.7,-1,Boulder,V0-1,1,,47.65098,-117.28811
"German Acres","Nosebleed > JY Boulders > ** Bouldering in Icicle Creek > Icicle Creek > Leavenworth > Central-East Cascades, Wenatchee, & Leavenworth > Washington",https://www.mountainproject.com/route/113788806/german-acres,1.3,-1,Boulder,V0,1,,47.55301,-120.76381
"Get Dirty Get Wet","Rhino Blocks > Sanpoil Bay > ** Banks Lake Deep Water Solos > Banks Lake > Central Region > Washington",https://www.mountainproject.com/route/126480665/get-dirty-get-wet,3.5,-1,Boulder,V0+,1,15,47.89546,-119.11546
"Get Shorty","Warmup boulder > The Forest > The Beach and Forest Area > ** Bouldering in Tumwater Canyon > Tumwater Canyon > Leavenworth > Central-East Cascades, Wenatchee, & Leavenworth > Washington",https://www.mountainproject.com/route/115436823/get-shorty,1.6,-1,Boulder,V0-,1,12,47.5944,-120.71438
"Glitter Balls","Rotary Community Park > Seattle and Seattle Eastside > Central-West Cascades & Seattle > Washington",https://www.mountainproject.com/route/124514335/glitter-balls,2.0,-1,Boulder,V-easy,1,24,47.76917,-122.15819
"Gold Plated","Western Outliers > Lichtenberg Boulders > Smithbrook > Central-East Cascades, Wenatchee, & Leavenworth > Washington",https://www.mountainproject.com/route/125443447/gold-plated,1.0,-1,"Boulder, Alpine",V0-1,1,,47.79325,-121.08937
"Golden Egg","Parking Lot Stones > Forestland Boulders > ** Bouldering in Icicle Creek > Icicle Creek > Leavenworth > Central-East Cascades, Wenatchee, & Leavenworth > Washington",https://www.mountainproject.com/route/126004489/golden-egg,2.0,-1,Boulder,V-easy,1,2,47.54498,-120.73285
"Great Slab Center","Great Slab > The Crown Cluster > Whiteface Area > 2nd Field (Main) > Treasury > Skykomish Valley > Central-West Cascades & Seattle > Washington",https://www.mountainproject.com/route/119645156/great-slab-center,1.0,-1,Boulder,V0,1,,47.76088,-121.12891
"Great Slab Left","Great Slab > The Crown Cluster > Whiteface Area > 2nd Field (Main) > Treasury > Skykomish Valley > Central-West Cascades & Seattle > Washington",https://www.mountainproject.com/route/119645145/great-slab-left,1.5,-1,Boulder,V0,1,,47.76088,-121.12891
"Great Slab Right","Great Slab > The Crown Cluster > Whiteface Area > 2nd Field (Main) > Treasury > Skykomish Valley > Central-West Cascades & Seattle > Washington",https://www.mountainproject.com/route/119645190/great-slab-right,1.0,-1,Boulder,V0,1,,47.76088,-121.12891
"Green Zero","Old Tin Man area (needs organizing) > Tin Man > ** Bouldering in Icicle Creek > Icicle Creek > Leavenworth > Central-East Cascades, Wenatchee, & Leavenworth > Washington",https://www.mountainproject.com/route/108359615/green-zero,3.0,-1,Boulder,V0,1,10,47.57629,-120.79259
"Greenhorn Slab","The Five Star Warmup > Reiter Road > Gold Bar Boulders > Skykomish Valley > Central-West Cascades & Seattle > Washington",https://www.mountainproject.com/route/122021838/greenhorn-slab,1.5,-1,Boulder,V-easy,1,9,47.84363,-121.61506
"Grey Arete","Lookout Slabs > Summit Area > Erie Mountain Drive  Areas > ** Bouldering at Mt Erie and Fidalgo Island > Mount Erie > San Juan, Fidalgo & Whidbey Islands > Northwest Region > Washington",https://www.mountainproject.com/route/106530733/grey-arete,1.5,-1,Boulder,V0,1,,48.45391,-122.62475
"Gulag (stand)","Russian Boulders > Empire Boulders > Columbia Gorge > South-West & Tacoma > Washington",https://www.mountainproject.com/route/121561864/gulag-stand,1.8,-1,Boulder,V0,1,15,45.74506,-121.76219
Gunshot,"North Cluster > Kalaloch Beach 3 > Olympic Bouldering > Olympic National Park > Olympics & Pacific Coast > Washington",https://www.mountainproject.com/route/126349929/gunshot,3.0,-1,"Boulder, Alpine",V0-1,1,12,47.64562,-124.38751
"Gypsy Funk","Machine Gun Boulder > ** Bouldering in Icicle Creek > Icicle Creek > Leavenworth > Central-East Cascades, Wenatchee, & Leavenworth > Washington",https://www.mountainproject.com/route/107278583/gypsy-funk,1.9,-1,Boulder,V0-1,1,,47.56784,-120.78514
"Haikyuu!! 402","Yonko boulder > Grand Line Boulders > Reiter Road > Gold Bar Boulders > Skykomish Valley > Central-West Cascades & Seattle > Washington",https://www.mountainproject.com/route/119248142/haikyuu-402,1.4,-1,Boulder,V0,1,10,47.84434,-121.61444
"Hamster Dance","Sun Sail Boulder > Sasquatch Boulders > ** Bouldering at Index > Index > Skykomish Valley > Central-West Cascades & Seattle > Washington",https://www.mountainproject.com/route/119467931/hamster-dance,1.3,-1,Boulder,V0,1,,47.83178,-121.52002
"Hand Crack","Crack Block > ** Bouldering at Gibralter > Gibralter Rocks > Northrup Canyon > Banks Lake > Central Region > Washington",https://www.mountainproject.com/route/123275362/hand-crack,2.0,-1,Boulder,V0,1,10,47.86645,-119.08576
"Hand(gun)less Traverse","(d) Clint Eastwood's Boulder > (1) Cable Sign Zone > Pistol Boulders > Far Side Boulders > **Bouldering at Exit 38 > Exit 38 > North Bend & Vicinity > Central-West Cascades & Seattle > Washington",https://www.mountainproject.com/route/120547018/handgunless-traverse,2.7,-1,Boulder,V0-1,1,20,47.42949,-121.61991
"Have Stuffies, Will Travel","Stuffed Animals Boulder > Holmberg Park > Spokane Area > Northeast Corner & Spokane > Washington",https://www.mountainproject.com/route/122994210/have-stuffies-will-travel,1.0,-1,"TR, Boulder","5.4 V-easy",1,19,47.74455,-117.4278
Hawkishly,"Kenticle Boulder > Kent East Hill Skate Park (AKA The Kenticle) > Seattle and Seattle Eastside > Central-West Cascades & Seattle > Washington",https://www.mountainproject.com/route/120405331/hawkishly,2.0,-1,Boulder,V0-1,1,12,47.3859,-122.1873
Hearthstone,"Scarecrow Boulder > Forestland Boulders > ** Bouldering in Icicle Creek > Icicle Creek > Leavenworth > Central-East Cascades, Wenatchee, & Leavenworth > Washington",https://www.mountainproject.com/route/108184597/hearthstone,1.4,-1,Boulder,V0-,1,10,47.54513,-120.7324
"Heir Apparent","Pocket Boulder > Mad Meadows > ** Bouldering in Icicle Creek > Icicle Creek > Leavenworth > Central-East Cascades, Wenatchee, & Leavenworth > Washington",https://www.mountainproject.com/route/107369953/heir-apparent,1.3,-1,Boulder,V0,1,,47.54255,-120.72272
Hexxus,"Hexxus > Fern Gully Cluster > Whiteface Area > 2nd Field (Main) > Treasury > Skykomish Valley > Central-West Cascades & Seattle > Washington",https://www.mountainproject.com/route/119611110/hexxus,3.0,-1,Boulder,V0,1,,47.7607,-121.12889
"High Warm Up","Obelisk Boulder > West Forest > Forest > Reiter Foothills > Gold Bar Boulders > Skykomish Valley > Central-West Cascades & Seattle > Washington",https://www.mountainproject.com/route/105849663/high-warm-up,2.4,-1,Boulder,V0,1,15,47.84866,-121.60887
"Hobbit Feet","Holy Smoke Boulder > Lookout Trail Boulders > ** Bouldering at Index > Index > Skykomish Valley > Central-West Cascades & Seattle > Washington",https://www.mountainproject.com/route/113615630/hobbit-feet,2.0,-1,Boulder,V-easy,1,20,47.82374,-121.55955
Hobo,"The H.S.L.T. Boulder > The Beach Parking Boulders > The Beach and Forest Area > ** Bouldering in Tumwater Canyon > Tumwater Canyon > Leavenworth > Central-East Cascades, Wenatchee, & Leavenworth > Washington",https://www.mountainproject.com/route/119036043/hobo,2.0,-1,Boulder,V0-,1,,47.58648,-120.70581
"Holster a Glock = Climb Wearing Socks","(h) Montgomery Boulder > (1) Cable Sign Zone > Pistol Boulders > Far Side Boulders > **Bouldering at Exit 38 > Exit 38 > North Bend & Vicinity > Central-West Cascades & Seattle > Washington",https://www.mountainproject.com/route/120547536/holster-a-glock-climb-wearing-socks,1.0,-1,Boulder,V0,1,8,47.42924,-121.61981
"Hoofin' It","The Pasture > Mountain Home Road Boulders > Leavenworth > Central-East Cascades, Wenatchee, & Leavenworth > Washington",https://www.mountainproject.com/route/118747356/hoofin-it,2.0,-1,Boulder,V0,1,,47.54418,-120.67133
Hoppípolla,"Passing Rain > Serene Area Boulders > Gold Bar Boulders > Skykomish Valley > Central-West Cascades & Seattle > Washington",https://www.mountainproject.com/route/121921408/hoppipolla,4.0,-1,Boulder,V-easy,1,15,47.83192,-121.61821
"Hot Links","Sausage Links Boulder > The Far East Forest > Reiter Foothills > Gold Bar Boulders > Skykomish Valley > Central-West Cascades & Seattle > Washington",https://www.mountainproject.com/route/120853715/hot-links,3.0,-1,Boulder,V0,1,10,47.8481,-121.596
"Howl (Stand start)","Coyote Corner > Mad Meadows > ** Bouldering in Icicle Creek > Icicle Creek > Leavenworth > Central-East Cascades, Wenatchee, & Leavenworth > Washington",https://www.mountainproject.com/route/119823672/howl-stand-start,0.5,-1,Boulder,V-easy,1,10,47.54284,-120.72034
"Huckleberry Fin","Gavel Boulder > 420 Zone > Morpheus Boulders > Miller River Boulders > Skykomish Valley > Central-West Cascades & Seattle > Washington",https://www.mountainproject.com/route/120788741/huckleberry-fin,1.0,-1,Boulder,V0,1,9,47.66346,-121.40322
"Hugs & Crevices","The Amphitheater > Horsethief Butte > South-Central & Yakima > Washington",https://www.mountainproject.com/route/114219420/hugs-crevices,1.0,-1,Boulder,V0,1,8,45.64832,-121.09834
"I'm Tired of Making Up Adverbs (ly)","Kenticle Boulder > Kent East Hill Skate Park (AKA The Kenticle) > Seattle and Seattle Eastside > Central-West Cascades & Seattle > Washington",https://www.mountainproject.com/route/120405403/im-tired-of-making-up-adverbs-ly,2.0,-1,Boulder,V0+,1,10,47.3859,-122.1873
Ibex,"Inca Boulder > Empire Boulders > Columbia Gorge > South-West & Tacoma > Washington",https://www.mountainproject.com/route/119675929/ibex,1.5,-1,Boulder,V-easy,1,,45.74503,-121.76211
"If Only It Was Longer","Richmond Beach Library > Seattle and Seattle Eastside > Central-West Cascades & Seattle > Washington",https://www.mountainproject.com/route/126032271/if-only-it-was-longer,1.0,-1,Boulder,V-easy,1,8,47.77217,-122.3846
Illegible,"Burge Boulders > Burge Mountain (Tonasket) > Okanogan > Washington",https://www.mountainproject.com/route/124474409/illegible,2.0,-1,Boulder,V0-,1,10,48.78124,-119.27279
"Imperial Dreams","Babylon Boulder > Empire Boulders > Columbia Gorge > South-West & Tacoma > Washington",https://www.mountainproject.com/route/119674780/imperial-dreams,1.6,-1,Boulder,V0,1,18,45.74499,-121.76218
"In Too Deep","Karen Boulders > West Forest > Forest > Reiter Foothills > Gold Bar Boulders > Skykomish Valley > Central-West Cascades & Seattle > Washington",https://www.mountainproject.com/route/105851767/in-too-deep,2.0,-1,Boulder,V0-1,1,,47.84817,-121.60815
In-You-End-Oh!,"La Petite Mort Wall > Burge North - Hidden Canyon > Burge North (Tonasket) > Okanogan > Washington",https://www.mountainproject.com/route/123114800/in-you-end-oh,1.0,-1,Boulder,V-easy,1,15,48.79733,-119.24361
"Indiana Bones","Indiana Bones Boulder > Blockbuster Boulders > Smithbrook > Central-East Cascades, Wenatchee, & Leavenworth > Washington",https://www.mountainproject.com/route/121383415/indiana-bones,2.0,-1,Boulder,V0,1,10,47.79522,-121.06455
"Instant Zen","Instant Zen Boulder > Central Forest > Forest > Reiter Foothills > Gold Bar Boulders > Skykomish Valley > Central-West Cascades & Seattle > Washington",https://www.mountainproject.com/route/105872567/instant-zen,3.0,-1,Boulder,V0,1,10,47.84788,-121.60788
ISSP,"Cowboy Bebop Boulder > Grand Line Boulders > Reiter Road > Gold Bar Boulders > Skykomish Valley > Central-West Cascades & Seattle > Washington",https://www.mountainproject.com/route/122306734/issp,2.0,-1,Boulder,V0+,1,8,47.8444,-121.61451
It's,"Party Boulder > 1st Talus Field > 1st Field > Treasury > Skykomish Valley > Central-West Cascades & Seattle > Washington",https://www.mountainproject.com/route/119590728/its,1.0,-1,Boulder,V0,1,,47.75803,-121.13049
"It's A Trap!","Off Width Boulder > 1st Talus Field > 1st Field > Treasury > Skykomish Valley > Central-West Cascades & Seattle > Washington",https://www.mountainproject.com/route/119590897/its-a-trap,2.0,-1,Boulder,V0,1,,47.75812,-121.13055
"It's Bobsled Time","Forestland Bluff > Forestland Boulders > ** Bouldering in Icicle Creek > Icicle Creek > Leavenworth > Central-East Cascades, Wenatchee, & Leavenworth > Washington",https://www.mountainproject.com/route/114161812/its-bobsled-time,1.0,-1,Boulder,V0,1,25,47.54521,-120.73275
"It's Not Gonna Lick Itself","Left Cliff > CSC Bouldering Area > Burge North (Tonasket) > Okanogan > Washington",https://www.mountainproject.com/route/122552108/its-not-gonna-lick-itself,1.0,-1,Boulder,"V0- R",1,30,48.79077,-119.24861
"Jackson's Banana Hammock","FCI Splash Zone > Fuck Camano Island > Deception Pass > San Juan, Fidalgo & Whidbey Islands > Northwest Region > Washington",https://www.mountainproject.com/route/119261792/jacksons-banana-hammock,4.0,-1,Boulder,V0,1,18,48.40195,-122.65457
"Javon’s Scramble","Macs Cove > Deception Pass > San Juan, Fidalgo & Whidbey Islands > Northwest Region > Washington",https://www.mountainproject.com/route/124417660/javons-scramble,3.0,-1,Boulder,V0,1,10,48.40454,-122.64612
Jetsam,"Flotsam & Jetsam > The Beach > The Beach and Forest Area > ** Bouldering in Tumwater Canyon > Tumwater Canyon > Leavenworth > Central-East Cascades, Wenatchee, & Leavenworth > Washington",https://www.mountainproject.com/route/116834691/jetsam,0.8,-1,Boulder,V0,1,,47.59904,-120.71489
"Joe's Proj","Joe's Boulder > Salty Spitoon > Granite Point Boulders > Granite Point > Southeast Corner > Washington",https://www.mountainproject.com/route/119433271/joes-proj,1.0,-1,Boulder,V0,1,16,46.60135,-117.3626
"Joe's Veasy","Joe's Boulder > Salty Spitoon > Granite Point Boulders > Granite Point > Southeast Corner > Washington",https://www.mountainproject.com/route/119433244/joes-veasy,1.0,-1,Boulder,V-easy,1,9,46.60135,-117.3626
"Joseph Biaretta","(e) Philosophical Sandeagle Boulder > (2) Highway Ditch Zone > Pistol Boulders > Far Side Boulders > **Bouldering at Exit 38 > Exit 38 > North Bend & Vicinity > Central-West Cascades & Seattle > Washington",https://www.mountainproject.com/route/120547455/joseph-biaretta,1.8,-1,Boulder,V0,1,12,47.42912,-121.62032
"Josh's Jugs","Cole's Boulder > Main Area > Mitchell Plateau > ** Bouldering in Icicle Creek > Icicle Creek > Leavenworth > Central-East Cascades, Wenatchee, & Leavenworth > Washington",https://www.mountainproject.com/route/114941972/joshs-jugs,2.0,-1,Boulder,"V0- PG13",1,18,47.54496,-120.72542
"Jug Head","Burge Boulders > Burge Mountain (Tonasket) > Okanogan > Washington",https://www.mountainproject.com/route/113500461/jug-head,2.0,-1,Boulder,V0-,1,8,48.78124,-119.27279
"Jugs From Heaven","Fractured Rock > The Roadside Boulders > Morning Rock Bouldering > Kettle Valley Bouldering > Kettle Valley (Curlew) > Okanogan > Washington",https://www.mountainproject.com/route/112809019/jugs-from-heaven,1.0,-1,Boulder,V-easy,1,,48.89153,-118.70017
"Jugs on a Slab!?","AlpenGlow (aka Upper Kueffler Road Boulders) > Columbia Gorge > South-West & Tacoma > Washington",https://www.mountainproject.com/route/108861097/jugs-on-a-slab,2.0,-1,Boulder,V-easy,1,20,45.67919,-122.06415
"Justin's Redemption Crack","Shark Fin > Zeke's Trail Boulders > Reiter Foothills > Gold Bar Boulders > Skykomish Valley > Central-West Cascades & Seattle > Washington",https://www.mountainproject.com/route/124559845/justins-redemption-crack,3.0,-1,Boulder,V0,1,,47.84993,-121.60884
Kelp,"Whale Boulder > Main Area > Mitchell Plateau > ** Bouldering in Icicle Creek > Icicle Creek > Leavenworth > Central-East Cascades, Wenatchee, & Leavenworth > Washington",https://www.mountainproject.com/route/114944800/kelp,1.0,-1,Boulder,V0-,1,8,47.54481,-120.72541
"Kirby's Last Days","Kirby's Last Days Boulder > Central Forest > Forest > Reiter Foothills > Gold Bar Boulders > Skykomish Valley > Central-West Cascades & Seattle > Washington",https://www.mountainproject.com/route/105853687/kirbys-last-days,3.3,-1,Boulder,V0+,1,,47.84791,-121.60764
"Knees Count","Super Weenie Hut Boulder > Weenie Hut Jr's > Granite Point Boulders > Granite Point > Southeast Corner > Washington",https://www.mountainproject.com/route/119432210/knees-count,1.0,-1,Boulder,V0-1,1,9,46.60094,-117.36146
"Kuba's Vaginal Arete","Kuba Slab Cluster > Lucid Boulders > Darrington > Darrington and Mountain Loop Hwy > Northwest Region > Washington",https://www.mountainproject.com/route/111241556/kubas-vaginal-arete,1.0,-1,Boulder,V0-1,1,,48.09568,-121.34904
L-sit,"Majora Boulder > Zelda Boulders > ** Bouldering at Index > Index > Skykomish Valley > Central-West Cascades & Seattle > Washington",https://www.mountainproject.com/route/121318692/l-sit,1.5,-1,Boulder,V0,1,9,47.82265,-121.55951
Ladderballs,"Rainier View Park (Sumner) > Seattle and Seattle Eastside > Central-West Cascades & Seattle > Washington",https://www.mountainproject.com/route/120214792/ladderballs,1.0,-1,Boulder,V-easy,1,10,47.19793,-122.22074
"Laminated Mantle","Portage Cliffs Bouldering > Sillusi Bluffs > Southeast Corner > Washington",https://www.mountainproject.com/route/120109225/laminated-mantle,2.3,-1,Boulder,V0,1,10,45.93975,-119.31216
"Lay It Up","The Face > The Roadside Boulders > Morning Rock Bouldering > Kettle Valley Bouldering > Kettle Valley (Curlew) > Okanogan > Washington",https://www.mountainproject.com/route/122571126/lay-it-up,1.0,-1,Boulder,V-easy,1,,48.8921,-118.70053
"Lead Person","(b) Titanium Boulder > (3) Access Road Zone > Pistol Boulders > Far Side Boulders > **Bouldering at Exit 38 > Exit 38 > North Bend & Vicinity > Central-West Cascades & Seattle > Washington",https://www.mountainproject.com/route/120547222/lead-person,1.0,-1,Boulder,V-easy,1,,47.42943,-121.61928
"Leave My Monkey Alone","Left Cliff > CSC Bouldering Area > Burge North (Tonasket) > Okanogan > Washington",https://www.mountainproject.com/route/122940246/leave-my-monkey-alone,2.0,-1,Boulder,V-easy,1,20,48.79077,-119.24861
"Ledge Ladder","Super Weenie Hut Boulder > Weenie Hut Jr's > Granite Point Boulders > Granite Point > Southeast Corner > Washington",https://www.mountainproject.com/route/119432252/ledge-ladder,1.0,-1,Boulder,V0-,1,11,46.60094,-117.36146
Ledges,"Evil Petting Zoo > The Forest > The Beach and Forest Area > ** Bouldering in Tumwater Canyon > Tumwater Canyon > Leavenworth > Central-East Cascades, Wenatchee, & Leavenworth > Washington",https://www.mountainproject.com/route/116834661/ledges,1.6,-1,Boulder,V0-1,1,,47.59457,-120.71431
Ledgible,"Burge Boulders > Burge Mountain (Tonasket) > Okanogan > Washington",https://www.mountainproject.com/route/113500446/ledgible,2.0,-1,Boulder,V-easy,1,10,48.78124,-119.27279
"Left Arete","Open Book Boulder > Zelda Boulders > ** Bouldering at Index > Index > Skykomish Valley > Central-West Cascades & Seattle > Washington",https://www.mountainproject.com/route/117375406/left-arete,1.5,-1,Boulder,V0,1,,47.82262,-121.55949
"Left Arête Slab","Open Book Boulder > Zelda Boulders > ** Bouldering at Index > Index > Skykomish Valley > Central-West Cascades & Seattle > Washington",https://www.mountainproject.com/route/118114549/left-arete-slab,1.7,-1,Boulder,V0,1,,47.82262,-121.55949
"Left Leaning","Lookout Slabs > Summit Area > Erie Mountain Drive  Areas > ** Bouldering at Mt Erie and Fidalgo Island > Mount Erie > San Juan, Fidalgo & Whidbey Islands > Northwest Region > Washington",https://www.mountainproject.com/route/106528221/left-leaning,1.3,-1,Boulder,V0,1,,48.45391,-122.62475
"Left Mantle","Picnic boulder > Lower Wall & Lower Lump Boulders > ** Bouldering at Index > Index > Skykomish Valley > Central-West Cascades & Seattle > Washington",https://www.mountainproject.com/route/108136141/left-mantle,2.0,-1,Boulder,V0-,1,,47.8185,-121.5705
"Left of V3 Crack?","Equinox Boulder > Clearcut > Reiter Foothills > Gold Bar Boulders > Skykomish Valley > Central-West Cascades & Seattle > Washington",https://www.mountainproject.com/route/105881949/left-of-v3-crack,2.5,-1,Boulder,V0,1,,47.84823,-121.60914
"Left ventricle","Mt. Washington > Olympic National Forest > Olympics & Pacific Coast > Washington",https://www.mountainproject.com/route/123309972/left-ventricle,2.0,-1,"TR, Boulder, Alpine",V0,1,12,47.53125,-123.246
"Left-handed, blue eyed woman","Ursa Major > Empire Boulders > Columbia Gorge > South-West & Tacoma > Washington",https://www.mountainproject.com/route/126218055/left-handed-blue-eyed-woman,2.0,-1,Boulder,V-easy,1,20,45.74502,-121.76214
"Leif Erickson Statue","Ballard > Seattle and Seattle Eastside > Central-West Cascades & Seattle > Washington",https://www.mountainproject.com/route/118325477/leif-erickson-statue,1.0,-1,Boulder,V0,1,22,47.66837,-122.38451
"Less Than Vertical Wall","The Point > Larrabee > Bellingham Area > Bellingham and Mt Baker Hwy > Northwest Region > Washington",https://www.mountainproject.com/route/120389456/less-than-vertical-wall,3.0,-1,"TR, Boulder","V-easy R",1,25,48.6509,-122.4938
"Lichen Climbing?","Jam Crack > Sehome Arboretum > Bellingham Area > Bellingham and Mt Baker Hwy > Northwest Region > Washington",https://www.mountainproject.com/route/125672565/lichen-climbing,3.0,-1,Boulder,"V0 PG13",1,,48.73075,-122.48242
"Lichen Traverse","Lichen Rock > Minnehaha > Spokane Area > Northeast Corner & Spokane > Washington",https://www.mountainproject.com/route/107177062/lichen-traverse,2.3,-1,Boulder,V0,1,,47.68819,-117.32498
"Lightning Crack","The Big Boulder > Zeke's Trail Boulders > Reiter Foothills > Gold Bar Boulders > Skykomish Valley > Central-West Cascades & Seattle > Washington",https://www.mountainproject.com/route/110858034/lightning-crack,3.9,-1,"Trad, Boulder","5.9 V0",1,25,47.84982,-121.60879
"Lightning Crack","Lightning Crack > West Forest > Forest > Reiter Foothills > Gold Bar Boulders > Skykomish Valley > Central-West Cascades & Seattle > Washington",https://www.mountainproject.com/route/118666843/lightning-crack,3.3,-1,Boulder,V0,1,20,47.84813,-121.60815
"Like Father Like Son","Right Cliff > CSC Bouldering Area > Burge North (Tonasket) > Okanogan > Washington",https://www.mountainproject.com/route/122590096/like-father-like-son,3.0,-1,Boulder,V-easy,1,10,48.79087,-119.24835
"Little Dreamers","Right Cliff > CSC Bouldering Area > Burge North (Tonasket) > Okanogan > Washington",https://www.mountainproject.com/route/122604221/little-dreamers,2.0,-1,Boulder,V-easy,1,10,48.79087,-119.24835
"Little Mama","Steam Roller Cave > The Crown Cluster > Whiteface Area > 2nd Field (Main) > Treasury > Skykomish Valley > Central-West Cascades & Seattle > Washington",https://www.mountainproject.com/route/119645413/little-mama,2.0,-1,Boulder,V0,1,,47.76095,-121.12897
"Little Miss Sunshine","Left Cliff > CSC Bouldering Area > Burge North (Tonasket) > Okanogan > Washington",https://www.mountainproject.com/route/122560529/little-miss-sunshine,2.0,-1,Boulder,V0-,1,10,48.79077,-119.24861
"Little Squirt","Left Cliff > CSC Bouldering Area > Burge North (Tonasket) > Okanogan > Washington",https://www.mountainproject.com/route/122552232/little-squirt,2.0,-1,Boulder,V-easy,1,10,48.79077,-119.24861
"Lone Star","Dishman Bouldering Wall > * Bouldering in Dishman > Dishman > Spokane Area > Northeast Corner & Spokane > Washington",https://www.mountainproject.com/route/113201034/lone-star,1.8,-1,Boulder,V0,1,,47.65098,-117.28811
"Lulu's Culu","Final Fantasy Boulder > West Forest > Forest > Reiter Foothills > Gold Bar Boulders > Skykomish Valley > Central-West Cascades & Seattle > Washington",https://www.mountainproject.com/route/105851755/lulus-culu,2.3,-1,Boulder,V0+,1,,47.84861,-121.60838
"Machu Pichu","Inca Boulder > Empire Boulders > Columbia Gorge > South-West & Tacoma > Washington",https://www.mountainproject.com/route/119658802/machu-pichu,2.4,-1,Boulder,V0,1,25,45.74503,-121.76211
"Mandate from Heaven","Mongolian Boulder > Empire Boulders > Columbia Gorge > South-West & Tacoma > Washington",https://www.mountainproject.com/route/119674905/mandate-from-heaven,1.0,-1,Boulder,V0,1,4,45.745,-121.76217
"Many Faces","Many Faces boulder > Main Area > Lost Ledge > Larrabee > Bellingham Area > Bellingham and Mt Baker Hwy > Northwest Region > Washington",https://www.mountainproject.com/route/119405226/many-faces,2.8,-1,Boulder,V0,1,,48.65852,-122.46102
"Marathon Man","Lock and Pop Boulder > Forestland Boulders > ** Bouldering in Icicle Creek > Icicle Creek > Leavenworth > Central-East Cascades, Wenatchee, & Leavenworth > Washington",https://www.mountainproject.com/route/108184522/marathon-man,1.9,-1,Boulder,V0,1,10,47.54498,-120.73285
Meh!,"Corridor of Funlandia > Sasquatch Boulders > ** Bouldering at Index > Index > Skykomish Valley > Central-West Cascades & Seattle > Washington",https://www.mountainproject.com/route/119467844/meh,1.7,-1,Boulder,V0,1,,47.83169,-121.52
"Metroid Right","Metroid Prime Boulder > East Forest > Forest > Reiter Foothills > Gold Bar Boulders > Skykomish Valley > Central-West Cascades & Seattle > Washington",https://www.mountainproject.com/route/119237310/metroid-right,0.7,-1,Boulder,V0,1,,47.84726,-121.60445
Mickey,"Heel Hook Rock > Swiftwater Picnic Area > Swiftwater Boulders > ** Bouldering in Tumwater Canyon > Tumwater Canyon > Leavenworth > Central-East Cascades, Wenatchee, & Leavenworth > Washington",https://www.mountainproject.com/route/106529498/mickey,1.8,-1,Boulder,V0,1,,47.66484,-120.71974
"Mini Chimney","Cougar Park (Mill Creek) Boulder > Seattle and Seattle Eastside > Central-West Cascades & Seattle > Washington",https://www.mountainproject.com/route/119291993/mini-chimney,1.5,-1,Boulder,V0-,1,8,47.86369,-122.18831
"Miscartridge of Justice","(d) Cartridge Boulder > (3) Access Road Zone > Pistol Boulders > Far Side Boulders > **Bouldering at Exit 38 > Exit 38 > North Bend & Vicinity > Central-West Cascades & Seattle > Washington",https://www.mountainproject.com/route/120550570/miscartridge-of-justice,2.0,-1,Boulder,V0,1,,47.42952,-121.61928
"Mommy Shark","Doo Doo Doo Doo Doo Doo Boulder > Main Area > Mitchell Plateau > ** Bouldering in Icicle Creek > Icicle Creek > Leavenworth > Central-East Cascades, Wenatchee, & Leavenworth > Washington",https://www.mountainproject.com/route/114941982/mommy-shark,1.0,-1,Boulder,V-easy,1,12,47.54464,-120.725
"Monkey Traverse","Ape Rock > Minnehaha > Spokane Area > Northeast Corner & Spokane > Washington",https://www.mountainproject.com/route/118725235/monkey-traverse,1.3,-1,Boulder,V0,1,,47.68859,-117.32602
Monolith,"Obelisk Boulder > Deception Glade Boulders > **Bouldering at Exit 38 > Exit 38 > North Bend & Vicinity > Central-West Cascades & Seattle > Washington",https://www.mountainproject.com/route/120023072/monolith,1.4,-1,Boulder,V0,1,10,47.43708,-121.66275
"Montgomery Mantle","(h) Montgomery Boulder > (1) Cable Sign Zone > Pistol Boulders > Far Side Boulders > **Bouldering at Exit 38 > Exit 38 > North Bend & Vicinity > Central-West Cascades & Seattle > Washington",https://www.mountainproject.com/route/120546817/montgomery-mantle,1.0,-1,Boulder,V0,1,7,47.42924,-121.61981
Moondog,"Bad Moon Slab > Forestland Boulders > ** Bouldering in Icicle Creek > Icicle Creek > Leavenworth > Central-East Cascades, Wenatchee, & Leavenworth > Washington",https://www.mountainproject.com/route/108184717/moondog,2.0,-1,Boulder,V-easy,1,10,47.54529,-120.73298
"moss ladder","Sehome Arboretum (old) > Bellingham Area > Bellingham and Mt Baker Hwy > Northwest Region > Washington",https://www.mountainproject.com/route/124332461/moss-ladder,1.0,-1,Boulder,V0+,1,7,48.7353,-122.4798
"Moss on my skateboard","Camp Raucous > Serene Area Boulders > Gold Bar Boulders > Skykomish Valley > Central-West Cascades & Seattle > Washington",https://www.mountainproject.com/route/119820213/moss-on-my-skateboard,2.5,-1,Boulder,V0,1,14,47.83438,-121.61965
"Mr Bad Example","Left Cliff > CSC Bouldering Area > Burge North (Tonasket) > Okanogan > Washington",https://www.mountainproject.com/route/122604095/mr-bad-example,2.0,-1,Boulder,"V-easy R",1,30,48.79077,-119.24861
"Mt. Chossington","South Fork Wall > Mt. Washington Boulders > **Bouldering at Exit 38 > Exit 38 > North Bend & Vicinity > Central-West Cascades & Seattle > Washington",https://www.mountainproject.com/route/126259576/mt-chossington,3.0,-1,Boulder,V0-1,-1,10,47.44183,-121.67268
Narcissistically,"Kenticle Boulder > Kent East Hill Skate Park (AKA The Kenticle) > Seattle and Seattle Eastside > Central-West Cascades & Seattle > Washington",https://www.mountainproject.com/route/120405443/narcissistically,1.0,-1,Boulder,V0,1,10,47.3859,-122.1873
"Natural Brick Viking Cabbin","New Sub-Area 1 > Western Washington University Buildering > Bellingham Area > Bellingham and Mt Baker Hwy > Northwest Region > Washington",https://www.mountainproject.com/route/118567119/natural-brick-viking-cabbin,4.0,-1,Boulder,"V0 X",1,15,48.73249,-122.48682
"Nazgul's Knife","Nazgul Boulder > **Bouldering at Vantage > Frenchman Coulee (Vantage) > Central Region > Washington",https://www.mountainproject.com/route/117261837/nazguls-knife,1.5,-1,Boulder,"V0-1 R",1,10,47.0278,-119.96418
"Nirvana Slab","Wiseman Boulder > Japanese Gardens > ** Bouldering in Icicle Creek > Icicle Creek > Leavenworth > Central-East Cascades, Wenatchee, & Leavenworth > Washington",https://www.mountainproject.com/route/119931888/nirvana-slab,2.0,-1,Boulder,V0,1,14,47.54624,-120.72587
"No Hands","Camp Raucous > Serene Area Boulders > Gold Bar Boulders > Skykomish Valley > Central-West Cascades & Seattle > Washington",https://www.mountainproject.com/route/119820191/no-hands,2.6,-1,Boulder,V0,1,14,47.83438,-121.61965
"No Hands!","Pebble Boulder > **Bouldering at Vantage > Frenchman Coulee (Vantage) > Central Region > Washington",https://www.mountainproject.com/route/122042610/no-hands,1.0,-1,Boulder,V0,1,6,47.03355,-119.95498
"No Pitons Here","Other routes > Swiftwater Picnic Area > Swiftwater Boulders > ** Bouldering in Tumwater Canyon > Tumwater Canyon > Leavenworth > Central-East Cascades, Wenatchee, & Leavenworth > Washington",https://www.mountainproject.com/route/106529506/no-pitons-here,2.0,-1,Boulder,V0,1,,47.66484,-120.71974
"Noble Savage","Viking Boulder > Empire Boulders > Columbia Gorge > South-West & Tacoma > Washington",https://www.mountainproject.com/route/119751323/noble-savage,1.4,-1,Boulder,V-easy,1,8,45.74504,-121.76215
"Non Existent Friction Slopers","Hagakure Boulder > River Boulders > ** Bouldering at Index > Index > Skykomish Valley > Central-West Cascades & Seattle > Washington",https://www.mountainproject.com/route/118857642/non-existent-friction-slopers,2.0,-1,Boulder,V-easy,1,,47.81751,-121.59809
"North Side","Burge Boulders > Burge Mountain (Tonasket) > Okanogan > Washington",https://www.mountainproject.com/route/123197010/north-side,2.0,-1,Boulder,V0-,1,10,48.78124,-119.27279
"Nowhere Fast","Inca Boulder > Empire Boulders > Columbia Gorge > South-West & Tacoma > Washington",https://www.mountainproject.com/route/119658625/nowhere-fast,1.0,-1,Boulder,V0,1,15,45.74503,-121.76211
Off-Kilter,"Warmup boulder > The Forest > The Beach and Forest Area > ** Bouldering in Tumwater Canyon > Tumwater Canyon > Leavenworth > Central-East Cascades, Wenatchee, & Leavenworth > Washington",https://www.mountainproject.com/route/115436776/off-kilter,2.1,-1,Boulder,V0,1,15,47.5944,-120.71438
"Offwidth Crack","(a) Blackstone > British Aisles/Repo Rocks Group > Exit 32; Little Si > North Bend & Vicinity > Central-West Cascades & Seattle > Washington",https://www.mountainproject.com/route/117097456/offwidth-crack,1.4,-1,Boulder,V-easy,1,8,47.49638,-121.75503
"Okee Dokee","Portage Cliffs Bouldering > Sillusi Bluffs > Southeast Corner > Washington",https://www.mountainproject.com/route/122049135/okee-dokee,2.0,-1,Boulder,V0,1,15,45.93975,-119.31216
"One Piece","Yonko boulder > Grand Line Boulders > Reiter Road > Gold Bar Boulders > Skykomish Valley > Central-West Cascades & Seattle > Washington",https://www.mountainproject.com/route/119252100/one-piece,2.3,-1,Boulder,V0,1,10,47.84434,-121.61444
"One Small Knob for Climber","Low Orbit Wall > The Switchbacks > Mitchell Plateau > ** Bouldering in Icicle Creek > Icicle Creek > Leavenworth > Central-East Cascades, Wenatchee, & Leavenworth > Washington",https://www.mountainproject.com/route/116208723/one-small-knob-for-climber,1.0,-1,Boulder,V0-,1,10,47.54405,-120.72496
Ottorg,"The Grotto > Fern Gully Cluster > Whiteface Area > 2nd Field (Main) > Treasury > Skykomish Valley > Central-West Cascades & Seattle > Washington",https://www.mountainproject.com/route/119645742/ottorg,2.0,-1,Boulder,V0,1,,47.76074,-121.12833
"Over Easy","Angelina Jolie Boulder > Twisted Tree > ** Bouldering in Icicle Creek > Icicle Creek > Leavenworth > Central-East Cascades, Wenatchee, & Leavenworth > Washington",https://www.mountainproject.com/route/121171095/over-easy,2.0,-1,Boulder,V0,1,,47.56205,-120.77906
"Over Myself","The Carnival Boulders > ** Bouldering in Icicle Creek > Icicle Creek > Leavenworth > Central-East Cascades, Wenatchee, & Leavenworth > Washington",https://www.mountainproject.com/route/113801197/over-myself,1.3,-1,Boulder,V0-1,1,,47.55558,-120.76821
Oysterhead,"The Awakening Boulder > Lucid Boulders > Darrington > Darrington and Mountain Loop Hwy > Northwest Region > Washington",https://www.mountainproject.com/route/111179604/oysterhead,3.0,-1,Boulder,V0,1,,48.09568,-121.34904
"Pablo's Warmup","Snaked Boulder > Main Area > Lost Ledge > Larrabee > Bellingham Area > Bellingham and Mt Baker Hwy > Northwest Region > Washington",https://www.mountainproject.com/route/119532656/pablos-warmup,2.4,-1,Boulder,V0,1,15,48.65849,-122.46109
"Park Bench","Flaky Truffle Boulder > Box of Chocolates Boulders > Stehekin > Chelan > Central-East Cascades, Wenatchee, & Leavenworth > Washington",https://www.mountainproject.com/route/111167049/park-bench,2.0,-1,Boulder,V0,1,,48.309,-120.6565
"Path of Least Resistance","Head Games Boulder > Salty Spitoon > Granite Point Boulders > Granite Point > Southeast Corner > Washington",https://www.mountainproject.com/route/119433127/path-of-least-resistance,1.0,-1,Boulder,V0-1,1,15,46.60142,-117.36259
"Peanuts Gallery traverse","(C) Peanuts Gallery > (a) West Side > Lookout Point > Lookout Point Area > Index > Skykomish Valley > Central-West Cascades & Seattle > Washington",https://www.mountainproject.com/route/126031113/peanuts-gallery-traverse,2.5,-1,Boulder,V0,1,15,47.82514,-121.55906
"Pedo Hunter","Right Cliff > CSC Bouldering Area > Burge North (Tonasket) > Okanogan > Washington",https://www.mountainproject.com/route/122590029/pedo-hunter,1.0,-1,Boulder,V-easy,1,15,48.79087,-119.24835
"Pedo Pete","Right Cliff > CSC Bouldering Area > Burge North (Tonasket) > Okanogan > Washington",https://www.mountainproject.com/route/122803886/pedo-pete,2.0,-1,Boulder,V0-,1,10,48.79087,-119.24835
Pedo-in-Chief,"Right Cliff > CSC Bouldering Area > Burge North (Tonasket) > Okanogan > Washington",https://www.mountainproject.com/route/122589820/pedo-in-chief,3.0,-1,Boulder,V0,1,12,48.79087,-119.24835
"Pedos on Parade","Middle Cliff > CSC Bouldering Area > Burge North (Tonasket) > Okanogan > Washington",https://www.mountainproject.com/route/122552555/pedos-on-parade,2.0,-1,Boulder,V0-,1,12,48.7908,-119.24843
"Penny Pockets","Warm-up Slab > Kalaloch Beach 3 > Olympic Bouldering > Olympic National Park > Olympics & Pacific Coast > Washington",https://www.mountainproject.com/route/122584160/penny-pockets,3.0,-1,"Boulder, Alpine",V0,1,15,47.64013,-124.38646
"People Skills","People Skills > ** Bouldering in Icicle Creek > Icicle Creek > Leavenworth > Central-East Cascades, Wenatchee, & Leavenworth > Washington",https://www.mountainproject.com/route/107944478/people-skills,0.0,-1,Boulder,V-easy,1,12,47.54186,-120.72751
Percolator,"Premium Coffee > Swiftwater Boulders > ** Bouldering in Tumwater Canyon > Tumwater Canyon > Leavenworth > Central-East Cascades, Wenatchee, & Leavenworth > Washington",https://www.mountainproject.com/route/116843146/percolator,1.0,-1,Boulder,V0,1,,47.65549,-120.72934
"Perfectly Balanced","Perfectly Balanced Slab > Outer Space Boulders > Smithbrook > Central-East Cascades, Wenatchee, & Leavenworth > Washington",https://www.mountainproject.com/route/122952426/perfectly-balanced,2.0,-1,"Boulder, Alpine",V0,1,20,47.80032,-121.054
Persia,"Swamp Thing Boulder > Jungle Gym Boulders > Miller River Boulders > Skykomish Valley > Central-West Cascades & Seattle > Washington",https://www.mountainproject.com/route/115194029/persia,1.5,-1,Boulder,V0,1,,47.68248,-121.39441
"Peyote Layback","Coyote Cobble > **Bouldering at Vantage > Frenchman Coulee (Vantage) > Central Region > Washington",https://www.mountainproject.com/route/119726899/peyote-layback,1.0,-1,Boulder,V0,1,,47.0328,-119.95322
Pillbug,"In The Woods > Sehome Arboretum Bouldering > Sehome Arboretum > Bellingham Area > Bellingham and Mt Baker Hwy > Northwest Region > Washington",https://www.mountainproject.com/route/126430252/pillbug,1.0,-1,Boulder,V0,1,,48.73019,-122.48274
"Pillow Talk","Chocolate Boulder > East Forest > Forest > Reiter Foothills > Gold Bar Boulders > Skykomish Valley > Central-West Cascades & Seattle > Washington",https://www.mountainproject.com/route/107716239/pillow-talk,1.1,-1,Boulder,V0+,1,8,47.84712,-121.60632
Piranha,"Machine Gun Boulder > ** Bouldering in Icicle Creek > Icicle Creek > Leavenworth > Central-East Cascades, Wenatchee, & Leavenworth > Washington",https://www.mountainproject.com/route/107798922/piranha,0.9,-1,Boulder,V0,1,10,47.56784,-120.78514
"Placed By The Pioneers","Port Gamble Heritage Park > Olympics & Pacific Coast > Washington",https://www.mountainproject.com/route/120038863/placed-by-the-pioneers,2.3,-1,Boulder,V0,1,15,47.79476,-122.59067
"Played Like a Poop Butt","Hourglass Boulder > The Sword/Underwear Rock > ** Bouldering in Icicle Creek > Icicle Creek > Leavenworth > Central-East Cascades, Wenatchee, & Leavenworth > Washington",https://www.mountainproject.com/route/114599743/played-like-a-poop-butt,2.6,-1,Boulder,V0,1,,47.57018,-120.78803
"Playground Psychotics","Middle Cliff > CSC Bouldering Area > Burge North (Tonasket) > Okanogan > Washington",https://www.mountainproject.com/route/122552044/playground-psychotics,3.0,-1,Boulder,V0-,1,12,48.7908,-119.24843
Pony,"Corridor of Funlandia > Sasquatch Boulders > ** Bouldering at Index > Index > Skykomish Valley > Central-West Cascades & Seattle > Washington",https://www.mountainproject.com/route/119467859/pony,1.3,-1,Boulder,V0,1,,47.83169,-121.52
"Porpoise Chimney","Coal Mountain Boulders > * Bouldering in the Cumberland Crags Area > Cumberland Crags > Other Skagit Valley Crags > Hwy 20 and North Cascades National Park > Northwest Region > Washington",https://www.mountainproject.com/route/119224007/porpoise-chimney,2.0,-1,Boulder,V0,1,,48.47716,-122.12122
"Pow Crack","Pow Boulder > Green Boulders Group > Clearcut > Reiter Foothills > Gold Bar Boulders > Skykomish Valley > Central-West Cascades & Seattle > Washington",https://www.mountainproject.com/route/113481869/pow-crack,3.0,-1,"TR, Boulder","5.8 V0- R",1,,47.84736,-121.60995
"Pride Before the Fall","Right Cliff > CSC Bouldering Area > Burge North (Tonasket) > Okanogan > Washington",https://www.mountainproject.com/route/122560897/pride-before-the-fall,3.0,-1,Boulder,V0+,1,12,48.79087,-119.24835
project,"Moth Boulder > Galena Major Bouldering > ** Bouldering at Index > Index > Skykomish Valley > Central-West Cascades & Seattle > Washington",https://www.mountainproject.com/route/118683362/project,2.0,-1,Boulder,V-easy,1,,47.85805,-121.46702
"Pull Up","The Face > The Roadside Boulders > Morning Rock Bouldering > Kettle Valley Bouldering > Kettle Valley (Curlew) > Okanogan > Washington",https://www.mountainproject.com/route/112808979/pull-up,1.3,-1,Boulder,V0,1,,48.8921,-118.70053
"Pulled (Out) The Trigger","(c) The Chamber Boulder > (3) Access Road Zone > Pistol Boulders > Far Side Boulders > **Bouldering at Exit 38 > Exit 38 > North Bend & Vicinity > Central-West Cascades & Seattle > Washington",https://www.mountainproject.com/route/120547486/pulled-out-the-trigger,1.3,-1,Boulder,V0,1,12,47.42949,-121.61937
Pulsar,"Quasar Wall > The Switchbacks > Mitchell Plateau > ** Bouldering in Icicle Creek > Icicle Creek > Leavenworth > Central-East Cascades, Wenatchee, & Leavenworth > Washington",https://www.mountainproject.com/route/116208673/pulsar,0.5,-1,Boulder,V-easy,1,10,47.54425,-120.7248
"Pups at Play","Coyote Corner > Mad Meadows > ** Bouldering in Icicle Creek > Icicle Creek > Leavenworth > Central-East Cascades, Wenatchee, & Leavenworth > Washington",https://www.mountainproject.com/route/119803387/pups-at-play,1.5,-1,Boulder,V0+,1,10,47.54284,-120.72034
"Purple Onion","Fats Boulder > Lucid Boulders > Darrington > Darrington and Mountain Loop Hwy > Northwest Region > Washington",https://www.mountainproject.com/route/111179354/purple-onion,2.0,-1,Boulder,V0,1,,48.09568,-121.34904
Quandivolous,"East Face > South Buttress > Marymoor Park Outdoor Sport Crag > Seattle and Seattle Eastside > Central-West Cascades & Seattle > Washington",https://www.mountainproject.com/route/122780602/quandivolous,1.3,-1,Boulder,V0+,1,13,47.66428,-122.11144
Quasar,"Quasar Wall > The Switchbacks > Mitchell Plateau > ** Bouldering in Icicle Creek > Icicle Creek > Leavenworth > Central-East Cascades, Wenatchee, & Leavenworth > Washington",https://www.mountainproject.com/route/116208659/quasar,1.0,-1,Boulder,V0-,1,12,47.54425,-120.7248
"R to L Traverse","Burge Boulders > Burge Mountain (Tonasket) > Okanogan > Washington",https://www.mountainproject.com/route/115154754/r-to-l-traverse,1.0,-1,Boulder,V-easy,1,10,48.78124,-119.27279
"Racing Stripes","Underwear Rock > The Sword/Underwear Rock > ** Bouldering in Icicle Creek > Icicle Creek > Leavenworth > Central-East Cascades, Wenatchee, & Leavenworth > Washington",https://www.mountainproject.com/route/121479656/racing-stripes,2.3,-1,Boulder,V0,1,,47.57008,-120.78798
"Radical Edward","Cowboy Bebop Boulder > Grand Line Boulders > Reiter Road > Gold Bar Boulders > Skykomish Valley > Central-West Cascades & Seattle > Washington",https://www.mountainproject.com/route/122307442/radical-edward,2.4,-1,Boulder,"V0+ PG13",1,15,47.8444,-121.61451
"Rainbow Arete","The Blob > Kalaloch Beach 3 > Olympic Bouldering > Olympic National Park > Olympics & Pacific Coast > Washington",https://www.mountainproject.com/route/122584043/rainbow-arete,2.0,-1,"Boulder, Alpine",V0,1,15,47.63958,-124.38643
"Red Fish","Naughty Corner Boulders > Paradise Boulders > Miller River Boulders > Skykomish Valley > Central-West Cascades & Seattle > Washington",https://www.mountainproject.com/route/119285171/red-fish,2.0,-1,Boulder,V0,1,,47.64217,-121.37542
Redacted,"Submarine Boulder > Rattlesnake Lake Bouldering > Exit 32; Rattlesnake Lake > North Bend & Vicinity > Central-West Cascades & Seattle > Washington",https://www.mountainproject.com/route/121350867/redacted,1.9,-1,Boulder,V0-1,1,,47.43398,-121.77298
"Regatta de Blanc","BMOC Boulder > East Forest > Forest > Reiter Foothills > Gold Bar Boulders > Skykomish Valley > Central-West Cascades & Seattle > Washington",https://www.mountainproject.com/route/107716204/regatta-de-blanc,2.1,-1,Boulder,V0,1,10,47.84712,-121.60671
"Rick Moranis","The Carnival Boulders > ** Bouldering in Icicle Creek > Icicle Creek > Leavenworth > Central-East Cascades, Wenatchee, & Leavenworth > Washington",https://www.mountainproject.com/route/113801185/rick-moranis,2.0,-1,Boulder,V-easy,1,,47.55558,-120.76821
Rider,"Jerry Garcia boulder > The Egg > ** Bouldering in Icicle Creek > Icicle Creek > Leavenworth > Central-East Cascades, Wenatchee, & Leavenworth > Washington",https://www.mountainproject.com/route/107278555/rider,1.7,-1,Boulder,V0,1,,47.57192,-120.78939
"Ridin' in the Cadillac","Morris Brown Cluster > West Forest > Forest > Reiter Foothills > Gold Bar Boulders > Skykomish Valley > Central-West Cascades & Seattle > Washington",https://www.mountainproject.com/route/119365544/ridin-in-the-cadillac,2.5,-1,Boulder,V0,1,,47.84858,-121.60887
"Right Wing","Lookout Slabs > Summit Area > Erie Mountain Drive  Areas > ** Bouldering at Mt Erie and Fidalgo Island > Mount Erie > San Juan, Fidalgo & Whidbey Islands > Northwest Region > Washington",https://www.mountainproject.com/route/106528233/right-wing,1.8,-1,Boulder,V-easy,1,,48.45391,-122.62475
"River Warm Up","Wonder Boulder > River Boulders > ** Bouldering at Index > Index > Skykomish Valley > Central-West Cascades & Seattle > Washington",https://www.mountainproject.com/route/119201041/river-warm-up,1.9,-1,Boulder,V0,1,,47.81718,-121.60172
"Rivulet Boulder","Rivulet Wall > Mt. Triumph Approach Crags & Boulders > North Cascades > Hwy 20 and North Cascades National Park > Northwest Region > Washington",https://www.mountainproject.com/route/121165743/rivulet-boulder,3.0,-1,"Boulder, Alpine",V0,1,12,48.78001,-120.89574
Robin,"Big Slab > Icicle Buttress Boulders > ** Bouldering in Icicle Creek > Icicle Creek > Leavenworth > Central-East Cascades, Wenatchee, & Leavenworth > Washington",https://www.mountainproject.com/route/122086740/robin,2.0,-1,Boulder,V0,1,16,47.54716,-120.75182
"Rock Candy","Rock Candy Boulder > Rhino Boulders > Far Side Boulders > **Bouldering at Exit 38 > Exit 38 > North Bend & Vicinity > Central-West Cascades & Seattle > Washington",https://www.mountainproject.com/route/114622906/rock-candy,1.9,-1,Boulder,V0+,1,10,47.43152,-121.62424
"Rocki Boiii","Main Area Bouldering > Sehome Arboretum Bouldering > Sehome Arboretum > Bellingham Area > Bellingham and Mt Baker Hwy > Northwest Region > Washington",https://www.mountainproject.com/route/125095625/rocki-boiii,1.0,-1,Boulder,V-easy,1,6,48.72964,-122.48328
Rome,"Roman Boulder > Empire Boulders > Columbia Gorge > South-West & Tacoma > Washington",https://www.mountainproject.com/route/119686631/rome,3.0,-1,Boulder,V0,1,18,45.74506,-121.76217
"Roof Crack Left","Open Book Boulder > Zelda Boulders > ** Bouldering at Index > Index > Skykomish Valley > Central-West Cascades & Seattle > Washington",https://www.mountainproject.com/route/117614062/roof-crack-left,2.2,-1,Boulder,V0,1,,47.82262,-121.55949
"Rubik's Arete","The Cube > Clamshell Cave > ** Bouldering in Icicle Creek > Icicle Creek > Leavenworth > Central-East Cascades, Wenatchee, & Leavenworth > Washington",https://www.mountainproject.com/route/108359521/rubiks-arete,2.6,-1,Boulder,V0,1,,47.54494,-120.72905
"Rude Awakening","The Goliath Boulder > ** Bouldering at Mt Erie and Fidalgo Island > Mount Erie > San Juan, Fidalgo & Whidbey Islands > Northwest Region > Washington",https://www.mountainproject.com/route/106707861/rude-awakening,2.2,-1,Boulder,V0,1,10,48.45226,-122.63209
"Rumor and Sigh","La Petite Mort Wall > Burge North - Hidden Canyon > Burge North (Tonasket) > Okanogan > Washington",https://www.mountainproject.com/route/123114935/rumor-and-sigh,2.0,-1,Boulder,"V0- PG13",1,20,48.79733,-119.24361
Runner,"Lock and Pop Boulder > Forestland Boulders > ** Bouldering in Icicle Creek > Icicle Creek > Leavenworth > Central-East Cascades, Wenatchee, & Leavenworth > Washington",https://www.mountainproject.com/route/107602106/runner,1.9,-1,Boulder,V0,1,,47.54498,-120.73285
"Ryan's Anal Beads","Kuba Slab Cluster > Lucid Boulders > Darrington > Darrington and Mountain Loop Hwy > Northwest Region > Washington",https://www.mountainproject.com/route/111241523/ryans-anal-beads,1.0,-1,Boulder,V0-1,1,,48.09568,-121.34904
"Sad Slab","Indiana Bones Boulder > Blockbuster Boulders > Smithbrook > Central-East Cascades, Wenatchee, & Leavenworth > Washington",https://www.mountainproject.com/route/121383402/sad-slab,2.0,-1,Boulder,V0,1,15,47.79522,-121.06455
"Salem Slab","Slingblade Boulder > Pitless Avocado > ** Bouldering in Tumwater Canyon > Tumwater Canyon > Leavenworth > Central-East Cascades, Wenatchee, & Leavenworth > Washington",https://www.mountainproject.com/route/119036023/salem-slab,1.3,-1,Boulder,V0,1,,47.59711,-120.71303
"Salmon Ladder","Girls Club > Fern Gully Cluster > Whiteface Area > 2nd Field (Main) > Treasury > Skykomish Valley > Central-West Cascades & Seattle > Washington",https://www.mountainproject.com/route/119611236/salmon-ladder,1.0,-1,Boulder,V0,1,,47.7607,-121.12874
"Sanctuary Crack","Sanctuary Boulders > East Forest > Forest > Reiter Foothills > Gold Bar Boulders > Skykomish Valley > Central-West Cascades & Seattle > Washington",https://www.mountainproject.com/route/118985627/sanctuary-crack,2.5,-1,Boulder,V0,1,,47.84738,-121.6046
"Sauerkraut Traverse","Landjäger Boulder > Approach Boulders > Morpheus Boulders > Miller River Boulders > Skykomish Valley > Central-West Cascades & Seattle > Washington",https://www.mountainproject.com/route/117768880/sauerkraut-traverse,2.0,-1,Boulder,V0,1,,47.6662,-121.39986
"Save the Children","Left Cliff > CSC Bouldering Area > Burge North (Tonasket) > Okanogan > Washington",https://www.mountainproject.com/route/122565114/save-the-children,1.0,-1,Boulder,"V-easy PG13",1,25,48.79077,-119.24861
"Say No to Loose Women","Say No to Lose Women Boulder > Kaya's Crack Cluster > East Forest > Forest > Reiter Foothills > Gold Bar Boulders > Skykomish Valley > Central-West Cascades & Seattle > Washington",https://www.mountainproject.com/route/105851801/say-no-to-loose-women,0.5,-1,Boulder,V-easy,1,,47.8472,-121.60668
"Scalia Parameters","(c) The Chamber Boulder > (3) Access Road Zone > Pistol Boulders > Far Side Boulders > **Bouldering at Exit 38 > Exit 38 > North Bend & Vicinity > Central-West Cascades & Seattle > Washington",https://www.mountainproject.com/route/120547500/scalia-parameters,1.5,-1,Boulder,V0,1,12,47.42949,-121.61937
Scandinavian,"The Bow Boulder > Far Side Boulders > **Bouldering at Exit 38 > Exit 38 > North Bend & Vicinity > Central-West Cascades & Seattle > Washington",https://www.mountainproject.com/route/114602547/scandinavian,2.0,-1,Boulder,V0-,1,10,47.43056,-121.62332
"Scarred For Life","Right Cliff > CSC Bouldering Area > Burge North (Tonasket) > Okanogan > Washington",https://www.mountainproject.com/route/122603934/scarred-for-life,2.0,-1,Boulder,V0-,1,12,48.79087,-119.24835
Scintillatingly,"Kenticle Boulder > Kent East Hill Skate Park (AKA The Kenticle) > Seattle and Seattle Eastside > Central-West Cascades & Seattle > Washington",https://www.mountainproject.com/route/120398888/scintillatingly,1.0,-1,Boulder,V-easy,1,10,47.3859,-122.1873
"Scoop Left","Scoop Wall > The Bunker > ** Banks Lake Deep Water Solos > Banks Lake > Central Region > Washington",https://www.mountainproject.com/route/124400003/scoop-left,1.0,-1,Boulder,V-easy,1,10,47.88537,-119.09387
